stop_id,stop_name,stop_lat,stop_lon,ligne
ABCH,Abbé Chérel,47.21010098,-1.65221959,[{'numLigne': '81'}]
ABDU,Abel Durand,47.22007197,-1.60325398,"[{'numLigne': 'C20'}, {'numLigne': 'LO'}]"
ABOL,Adrienne Bolland,47.26791335,-1.47684627,[{'numLigne': '77'}]
ACHA,Angle Chaillou,47.26977722,-1.57185211,"[{'numLigne': '126'}, {'numLigne': '96'}]"
ADBO,Audubon,47.21393087,-1.72309726,"[{'numLigne': '101'}, {'numLigne': '141'}, {'numLigne': '91'}, {'numLigne': 'E1'}]"
ADEL,Aimé Delrue,47.20899731,-1.55009787,"[{'numLigne': '2'}, {'numLigne': '3'}, {'numLigne': '3B'}, {'numLigne': 'LC'}]"
ADPI,Avenue des Pins,47.25326073,-1.59670445,[{'numLigne': '79'}]
AECL,Aéroclub,47.15926556,-1.59825258,"[{'numLigne': '98'}, {'numLigne': 'NA'}]"
AEPO,D2A - Aéroport,47.15686225,-1.59741579,"[{'numLigne': '38'}, {'numLigne': '98'}]"
AESP,Aérospatiale,47.16135928,-1.58704949,[{'numLigne': '38'}]
AFRA,Anatole France,47.22367415,-1.57152434,"[{'numLigne': '26'}, {'numLigne': '3B'}, {'numLigne': '54'}]"
AGBE,L'Angebert,47.14054089,-1.45576884,[{'numLigne': '47'}]
AGDR,Angebardière,47.1694326,-1.50522732,"[{'numLigne': '47'}, {'numLigne': '97'}]"
AGVI,Angevinière,47.24593679,-1.61071504,"[{'numLigne': '119'}, {'numLigne': '129'}, {'numLigne': '139'}, {'numLigne': '159'}, {'numLigne': '189'}, {'numLigne': '3B'}, {'numLigne': '50'}, {'numLigne': '54'}]"
AIBU,Airbus,47.15798559,-1.59089584,[{'numLigne': '38'}]
AIGU,Aiguillon,47.25456226,-1.49652938,"[{'numLigne': '127'}, {'numLigne': '147'}, {'numLigne': '157'}, {'numLigne': '80'}, {'numLigne': '87'}]"
ALCH,Champ de l'Alouette,47.28282777,-1.5800863,[{'numLigne': 'LCO'}]
ALDE,Allende,47.17525341,-1.62320432,"[{'numLigne': '36'}, {'numLigne': '78'}, {'numLigne': '88'}, {'numLigne': 'E8'}]"
ALNE,Aulne,47.27633116,-1.6383702,"[{'numLigne': '179'}, {'numLigne': '79'}]"
AMCA,Armoricaine,47.25827307,-1.64747915,"[{'numLigne': '139'}, {'numLigne': '149'}, {'numLigne': '159'}, {'numLigne': '169'}, {'numLigne': '69'}]"
AMER,Américains,47.23612591,-1.5682026,"[{'numLigne': '12'}, {'numLigne': 'C2'}, {'numLigne': 'LO'}]"
AMPE,Ampère,47.26076619,-1.55333274,"[{'numLigne': '116'}, {'numLigne': '66'}, {'numLigne': '86'}, {'numLigne': 'E5'}]"
ANGE,Les Anges,47.27520418,-1.63709529,"[{'numLigne': '179'}, {'numLigne': '79'}]"
ANTO,Antons,47.25784245,-1.62336864,"[{'numLigne': '119'}, {'numLigne': '129'}, {'numLigne': '139'}, {'numLigne': '189'}, {'numLigne': '89'}]"
APAV,Apave,47.22539944,-1.64741053,[{'numLigne': '93'}]
APER,Ampère,47.30218726,-1.50789091,"[{'numLigne': '85'}, {'numLigne': '95'}]"
APRE,Ambroise Paré,47.22908256,-1.60841337,"[{'numLigne': '111'}, {'numLigne': '59'}, {'numLigne': 'C6'}]"
AQUI,Aquitaine,47.20976487,-1.61491975,"[{'numLigne': '23'}, {'numLigne': '59'}, {'numLigne': '81'}, {'numLigne': '91'}]"
ARAG,Arago,47.30355064,-1.50481141,"[{'numLigne': '85'}, {'numLigne': '95'}]"
ARBO,Arbois,47.25844466,-1.58200407,"[{'numLigne': '109'}, {'numLigne': '59'}]"
ARCA,Arcades,47.21187953,-1.65288093,"[{'numLigne': '50'}, {'numLigne': '91'}, {'numLigne': 'NBI'}]"
ARGO,Argonautes,47.30242198,-1.48182549,"[{'numLigne': '85'}, {'numLigne': '95'}]"
ARMO,Armorique,47.27147205,-1.44534382,"[{'numLigne': '105'}, {'numLigne': '127'}, {'numLigne': '137'}]"
AROR,Armor,47.23107086,-1.63183278,"[{'numLigne': '50'}, {'numLigne': '93'}, {'numLigne': 'C3'}]"
ATAR,Antarès,47.28171763,-1.45970027,[{'numLigne': '77'}]
AUCP,La Chapelle Aulnay,47.30814501,-1.54248265,"[{'numLigne': '86'}, {'numLigne': '96'}]"
AUFR,L'Aufrère,47.16804829,-1.52507017,[{'numLigne': '33'}]
AUGE,Augé,47.19496578,-1.51736648,[{'numLigne': '30'}]
AURR,Aurore,47.26487732,-1.58088793,[{'numLigne': '59'}]
AVEN,Aveneaux,47.23393311,-1.6297971,[{'numLigne': '50'}]
BABI,Barbinière,47.15985795,-1.48169668,[{'numLigne': '47'}]
BAGA,Bagatelle,47.24354938,-1.61992939,[{'numLigne': '50'}]
BAIE,Babinière,47.25929482,-1.54621402,[{'numLigne': '66'}]
BAIR,Bel Air,47.22578752,-1.55964729,"[{'numLigne': '12'}, {'numLigne': '23'}, {'numLigne': '2B'}, {'numLigne': 'C2'}, {'numLigne': 'LO'}]"
BALI,Balinière,47.18598939,-1.55397615,"[{'numLigne': '2'}, {'numLigne': '3'}, {'numLigne': '38'}, {'numLigne': '3B'}]"
BANS,Bois des Anses,47.24669068,-1.49490701,"[{'numLigne': '127'}, {'numLigne': '137'}, {'numLigne': '147'}, {'numLigne': '157'}, {'numLigne': '87'}, {'numLigne': 'C7'}]"
BARR,La Barre,47.30881395,-1.38257905,[{'numLigne': '67'}]
BAST,Bastille,47.1790361,-1.59693154,"[{'numLigne': '36'}, {'numLigne': '3B'}, {'numLigne': '78'}, {'numLigne': '88'}]"
BATI,Batignolles,47.25560851,-1.52993977,"[{'numLigne': '1B'}, {'numLigne': '75'}, {'numLigne': 'C6'}, {'numLigne': 'LC'}]"
BAUG,Baugerie,47.20378578,-1.52024833,"[{'numLigne': '152'}, {'numLigne': '162'}, {'numLigne': 'C9'}]"
BAVO,Basse Orévière,47.22040673,-1.65893741,[{'numLigne': '71'}]
BBON,Boisbonne,47.28686058,-1.50837641,[{'numLigne': '75'}]
BCES,Bois Cesbron,47.26096422,-1.62426144,"[{'numLigne': '119'}, {'numLigne': '129'}, {'numLigne': '139'}, {'numLigne': '189'}, {'numLigne': '89'}]"
BCGA,Bd Charles Gautier,47.22282517,-1.60702642,"[{'numLigne': '59'}, {'numLigne': 'C3'}]"
BCHE,Basse Chênaie,47.24117164,-1.50919095,"[{'numLigne': '12'}, {'numLigne': '127'}, {'numLigne': '137'}, {'numLigne': '87'}, {'numLigne': 'C7'}]"
BCNY,Bas-Chantenay,47.19821371,-1.58922286,"[{'numLigne': '10'}, {'numLigne': '81'}, {'numLigne': 'C1'}, {'numLigne': 'C20'}, {'numLigne': 'LO'}, {'numLigne': 'N2'}]"
BCOI,Branchoire,47.21799656,-1.60336553,"[{'numLigne': '11'}, {'numLigne': '23'}, {'numLigne': 'C20'}, {'numLigne': 'LO'}]"
BCTT,Blanchet,47.17130941,-1.54326782,"[{'numLigne': '104'}, {'numLigne': 'C4'}]"
BDAN,Bd des Anglais,47.22671207,-1.58285255,"[{'numLigne': '10'}, {'numLigne': '54'}]"
BDEL,Baudelaire,47.23394462,-1.59263911,"[{'numLigne': '59'}, {'numLigne': '89'}]"
BDGL,Bodiguel,47.19847811,-1.65492143,[{'numLigne': 'NBI'}]
BDIN,Bodinière,47.21000731,-1.64190242,"[{'numLigne': '81'}, {'numLigne': '91'}]"
BDLA,Bout des Landes,47.26744242,-1.5822668,[{'numLigne': '59'}]
BDNN,Bourdonnais,47.20638013,-1.57951294,"[{'numLigne': '10'}, {'numLigne': 'C1'}]"
BDOU,Bd de Doulon,47.22469671,-1.51977291,"[{'numLigne': '1'}, {'numLigne': '10'}, {'numLigne': '1B'}, {'numLigne': 'C3'}]"
BDPA,Bout des Pavés,47.25287837,-1.57617252,"[{'numLigne': '109'}, {'numLigne': '126'}, {'numLigne': '59'}, {'numLigne': '86'}, {'numLigne': '96'}, {'numLigne': 'C2'}, {'numLigne': 'C20'}]"
BDRI,Bourderies,47.20663194,-1.59592025,[{'numLigne': '11'}]
BDSP,Bd des Sports,47.16559974,-1.46876821,"[{'numLigne': '47'}, {'numLigne': '97'}]"
BEDR,Bel Endroit,47.15470661,-1.63396536,[{'numLigne': '88'}]
BEGE,Beauger,47.23420845,-1.5529879,"[{'numLigne': '10'}, {'numLigne': '23'}]"
BEHI,Béhinière,47.19701789,-1.79093353,[{'numLigne': '128'}]
BEIL,Beillevaire,47.24938735,-1.60726607,"[{'numLigne': '129'}, {'numLigne': '139'}, {'numLigne': '169'}, {'numLigne': '179'}, {'numLigne': '189'}, {'numLigne': '50'}, {'numLigne': '69'}, {'numLigne': '89'}]"
DPBL,Bêle,47.26472488,-1.51048865,[{'numLigne': '95'}]
BEMZ,Belges-Montbazon,47.23461282,-1.540984,"[{'numLigne': '10'}, {'numLigne': 'C6'}]"
BENA,Beaulieu,47.20411813,-1.53718842,"[{'numLigne': '26'}, {'numLigne': '4'}, {'numLigne': 'LS'}]"
BEOC,Belloc,47.20374088,-1.61460707,"[{'numLigne': '131'}, {'numLigne': '40'}, {'numLigne': 'C20'}]"
BESS,Bessonneau,47.2146289,-1.71349968,"[{'numLigne': '101'}, {'numLigne': '131'}, {'numLigne': '71'}]"
BETO,Belle Etoile,47.28018099,-1.45165075,[{'numLigne': '77'}]
BEVA,Beauvaiserie,47.13617533,-1.65410801,[{'numLigne': '98'}]
BGAR,Bonne Garde,47.19702208,-1.53125706,"[{'numLigne': '4'}, {'numLigne': 'LS'}]"
BGCY,Beaugency,47.20379533,-1.49024992,"[{'numLigne': '122'}, {'numLigne': '152'}, {'numLigne': 'C9'}]"
BGLA,Basse-Goulaine,47.21036202,-1.46600404,"[{'numLigne': '162'}, {'numLigne': '60'}, {'numLigne': 'C9'}]"
BGNN,Bourgonnière,47.20665817,-1.65539946,"[{'numLigne': '50'}, {'numLigne': '81'}]"
BGOG,Bourgogne,47.24658562,-1.58907096,"[{'numLigne': '109'}, {'numLigne': '79'}]"
BGRI,Bougrière,47.2551146,-1.47170041,"[{'numLigne': '107'}, {'numLigne': '117'}, {'numLigne': '127'}, {'numLigne': '137'}, {'numLigne': '147'}, {'numLigne': '157'}, {'numLigne': '87'}, {'numLigne': 'C7'}]"
BGSH,Bergerie,47.23794964,-1.62824352,[{'numLigne': '50'}]
BGTT,Bergeronnettes,47.23935271,-1.60044248,"[{'numLigne': '54'}, {'numLigne': '59'}]"
BGUT,Louis Breguet,47.27205303,-1.46602672,[{'numLigne': '77'}]
BGVI,Bougainville,47.19894579,-1.58359414,"[{'numLigne': '81'}, {'numLigne': 'C20'}, {'numLigne': 'LO'}]"
BHAR,Bois Hardy,47.19827606,-1.6005922,"[{'numLigne': '81'}, {'numLigne': 'C20'}]"
BHLR,Basse Hillière,47.28666678,-1.42683097,[{'numLigne': '135'}]
BIAN,Aristide Briand,47.29640065,-1.49503045,"[{'numLigne': '75'}, {'numLigne': '85'}, {'numLigne': '95'}]"
BIEE,Belle Île,47.22439959,-1.73275085,[{'numLigne': '91'}]
BIGN,Bignons,47.19981789,-1.49340125,"[{'numLigne': '102'}, {'numLigne': '27'}]"
BILE,Basse Ile,47.19567263,-1.56326908,"[{'numLigne': '36'}, {'numLigne': 'LS'}]"
BIND,Basse Indre,47.19786018,-1.67271604,"[{'numLigne': '50'}, {'numLigne': '81'}, {'numLigne': 'NBI'}]"
BIOT,Bigeottière,47.25591197,-1.61925685,"[{'numLigne': '119'}, {'numLigne': '129'}, {'numLigne': '139'}, {'numLigne': '189'}, {'numLigne': '89'}]"
BJLI,Bois Jaulin,47.17757559,-1.63685031,[{'numLigne': '78'}]
BJOI,Beaujoire,47.25884014,-1.52488181,"[{'numLigne': '1'}, {'numLigne': '115'}, {'numLigne': '1B'}, {'numLigne': '75'}, {'numLigne': 'C6'}, {'numLigne': 'LC'}]"
BLAV,Balavoine,47.30648713,-1.55427932,"[{'numLigne': '116'}, {'numLigne': '126'}, {'numLigne': '86'}]"
BLCH,Blancho,47.21355413,-1.73377668,"[{'numLigne': '91'}, {'numLigne': 'E1'}]"
BLDR,Boulodrome,47.25763488,-1.51513767,"[{'numLigne': '1B'}, {'numLigne': '77'}]"
BLEM,Belem,47.26563709,-1.45300144,"[{'numLigne': '117'}, {'numLigne': '135'}, {'numLigne': '157'}, {'numLigne': '87'}]"
BLGO,Berligout,47.21576179,-1.67855238,[{'numLigne': '91'}]
BLL9,Bellestre,47.14846357,-1.69436915,[{'numLigne': '108'}]
BLLE,Bellestre,47.14793376,-1.69406522,"[{'numLigne': '108'}, {'numLigne': '88'}]"
BLNO,Bois de La Noé,47.14178867,-1.67142407,[{'numLigne': '88'}]
BLOR,Blordière,47.17991242,-1.53385179,[{'numLigne': '97'}]
BLSL,Bellevue,47.23541838,-1.47360365,[{'numLigne': '80'}]
BLUA,Bélouga,47.165802,-1.58354505,[{'numLigne': '38'}]
BLVU,Mendès-France-Bellevue,47.20852569,-1.61165603,"[{'numLigne': '1'}, {'numLigne': '131'}, {'numLigne': '1B'}, {'numLigne': '23'}, {'numLigne': '40'}, {'numLigne': '59'}, {'numLigne': '81'}, {'numLigne': '91'}, {'numLigne': 'C20'}]"
BLZZ,Berlioz,47.23970226,-1.57163772,"[{'numLigne': '12'}, {'numLigne': 'C2'}, {'numLigne': 'LO'}]"
BNCH,Blanchetière,47.28986239,-1.55584836,"[{'numLigne': '116'}, {'numLigne': '126'}, {'numLigne': '86'}, {'numLigne': '96'}, {'numLigne': 'LCE'}]"
BNDA,Brindais,47.1389786,-1.71820971,"[{'numLigne': '108'}, {'numLigne': '98'}]"
BNET,Bignonnet,47.17553725,-1.46511578,"[{'numLigne': '42'}, {'numLigne': 'E4'}]"
BNIE,Bournière,47.25439588,-1.45524697,"[{'numLigne': '107'}, {'numLigne': '147'}]"
BNLU,Bénélux,47.25411511,-1.49914288,"[{'numLigne': '127'}, {'numLigne': '147'}, {'numLigne': '157'}, {'numLigne': '80'}, {'numLigne': '87'}]"
BNNO,Bernanos,47.20648589,-1.6133559,"[{'numLigne': '131'}, {'numLigne': '40'}, {'numLigne': 'C20'}]"
BNON,Bignon,47.24908296,-1.59771985,"[{'numLigne': '3'}, {'numLigne': '3B'}]"
BNTA,BN,47.18431325,-1.49651937,"[{'numLigne': '102'}, {'numLigne': '28'}]"
BNVI,Bonneville,47.24386466,-1.53636465,[{'numLigne': '23'}]
BOCE,Centre de Bouguenais,47.17931447,-1.62297628,[{'numLigne': '36'}]
BODO,Bourdonnières,47.18636958,-1.52205853,"[{'numLigne': '172'}, {'numLigne': '30'}, {'numLigne': '4'}, {'numLigne': '42'}, {'numLigne': 'LS'}]"
BOFA,Bouffay,47.2146087,-1.55195955,[{'numLigne': '1'}]
BOGE,Bourgeonnière,47.25293409,-1.56122882,"[{'numLigne': '116'}, {'numLigne': '2'}, {'numLigne': '26'}, {'numLigne': '2B'}, {'numLigne': '86'}]"
BOLL,Bois Tillac,47.20024463,-1.77122484,"[{'numLigne': '128'}, {'numLigne': '148'}, {'numLigne': 'E8'}]"
BOND,Bonde,47.22261834,-1.55214517,"[{'numLigne': '2B'}, {'numLigne': 'C1'}, {'numLigne': 'C6'}, {'numLigne': 'LC'}, {'numLigne': 'LN'}]"
BORL,Bourrelière,47.1583135,-1.49835581,[{'numLigne': '47'}]
BOSI,Boissière,47.25512278,-1.56575384,"[{'numLigne': '126'}, {'numLigne': '2'}, {'numLigne': '2B'}, {'numLigne': '96'}]"
BOTI,Boutière,47.15724784,-1.4680428,[{'numLigne': '47'}]
BOUE,Bio Ouest Laënnec,47.23270638,-1.64187191,[{'numLigne': '93'}]
BOVR,Bouvre,47.17821183,-1.61311926,[{'numLigne': '36'}]
BPTY,Boulay Paty,47.22881389,-1.57665988,[{'numLigne': '10'}]
BRAG,Bois Raguenet,47.26664252,-1.6004679,"[{'numLigne': '109'}, {'numLigne': '179'}, {'numLigne': '79'}, {'numLigne': '89'}]"
BRBI,Bois Robillard,47.2351455,-1.51973294,"[{'numLigne': '11'}, {'numLigne': '1B'}]"
BRCH,Bréchetière,47.28477709,-1.50332935,[{'numLigne': '95'}]
BRDI,Briandière,47.18970915,-1.69205782,"[{'numLigne': '138'}, {'numLigne': '158'}, {'numLigne': '78'}]"
BRET,Bretonnière,47.16651436,-1.46289052,"[{'numLigne': '102'}, {'numLigne': '112'}, {'numLigne': '122'}, {'numLigne': '192'}, {'numLigne': '97'}]"
BRGA,Beauregard,47.21002642,-1.6569726,"[{'numLigne': '50'}, {'numLigne': '91'}, {'numLigne': 'NBI'}]"
BRIN,Brains,47.17075177,-1.7188987,"[{'numLigne': '118'}, {'numLigne': '98'}]"
BRLA,Brouillard,47.27313261,-1.51493135,"[{'numLigne': '115'}, {'numLigne': '75'}]"
BRLN,Berlin,47.21648924,-1.53623353,"[{'numLigne': '5'}, {'numLigne': 'C3'}, {'numLigne': 'LS'}]"
BRNI,Baronnière,47.25949964,-1.60391082,"[{'numLigne': '116'}, {'numLigne': '179'}, {'numLigne': '50'}, {'numLigne': '79'}]"
BROS,Brossais,47.16258113,-1.58555429,[{'numLigne': '38'}]
BRTA,Bretagne,47.21709924,-1.55822138,[{'numLigne': '3'}]
BRUN,Bruneau,47.2283306,-1.56168361,"[{'numLigne': '12'}, {'numLigne': '23'}, {'numLigne': '2B'}, {'numLigne': 'C2'}, {'numLigne': 'LO'}]"
BRVI,Boris Vian,47.1531628,-1.68363101,[{'numLigne': '88'}]
BSAN,Bobby Sands,47.22988866,-1.65303418,"[{'numLigne': '111'}, {'numLigne': '93'}]"
BSEJ,Beauséjour,47.23837392,-1.58688119,"[{'numLigne': '12'}, {'numLigne': '3'}, {'numLigne': '3B'}, {'numLigne': '59'}, {'numLigne': '79'}, {'numLigne': '89'}, {'numLigne': '96'}, {'numLigne': 'C20'}, {'numLigne': 'LO'}]"
BSIS,Bossis,47.21251451,-1.71214987,"[{'numLigne': '91'}, {'numLigne': 'E1'}]"
BSNI,Bussonnière,47.26972263,-1.4437646,"[{'numLigne': '105'}, {'numLigne': '135'}, {'numLigne': '77'}, {'numLigne': 'C7'}]"
BSOL,Beau Soleil,47.1776619,-1.64478281,[{'numLigne': '78'}]
BSTI,Bastière,47.14834812,-1.45935784,[{'numLigne': '47'}]
BSYS,Bois St-Lys,47.30043222,-1.48208043,"[{'numLigne': '85'}, {'numLigne': '95'}]"
BTAI,Brétinais,47.22170065,-1.66577687,[{'numLigne': '71'}]
BTCY,Lycée Bois Tillac,47.20343111,-1.77027988,[{'numLigne': '148'}]
BTEC,Bretéché,47.22525856,-1.54863519,"[{'numLigne': '2B'}, {'numLigne': 'C1'}, {'numLigne': 'C6'}]"
BTIE,Bottière,47.24023431,-1.51838071,[{'numLigne': '11'}]
BTLE,Bouteillerie,47.2214697,-1.54346856,"[{'numLigne': '11'}, {'numLigne': '12'}]"
BTRA,Bertrand,47.25712789,-1.5756898,[{'numLigne': 'C2'}]
BUGA,Bugallière,47.25990949,-1.63790318,"[{'numLigne': '119'}, {'numLigne': '129'}, {'numLigne': '139'}, {'numLigne': '189'}, {'numLigne': '89'}]"
BULA,Butte des Landes,47.1608075,-1.49378067,[{'numLigne': '47'}]
BUON,Bougon,47.17424115,-1.6107129,"[{'numLigne': '36'}, {'numLigne': '78'}, {'numLigne': '88'}]"
BUSS,Buisson,47.26062797,-1.48743916,"[{'numLigne': '135'}, {'numLigne': '87'}]"
BVDI,Bouvardière,47.238432,-1.59839097,"[{'numLigne': '54'}, {'numLigne': '59'}]"
BVER,Bouvernière,47.23761711,-1.6116879,"[{'numLigne': '59'}, {'numLigne': '89'}]"
BVOI,Beauvoir,47.17851239,-1.6305789,"[{'numLigne': '36'}, {'numLigne': '78'}]"
BYCE,Centre de Bouaye,47.14396012,-1.6917859,"[{'numLigne': '88'}, {'numLigne': '98'}]"
BYGA,Gare de Bouaye,47.1384035,-1.68067539,"[{'numLigne': '88'}, {'numLigne': '98'}]"
BYTO,Bouaye Coteaux,47.16477019,-1.67882328,[{'numLigne': '88'}]
BZAR,Buzardières,47.20677231,-1.65990192,"[{'numLigne': '50'}, {'numLigne': '91'}, {'numLigne': 'NBI'}]"
CABR,Cabrol,47.20328093,-1.58853732,"[{'numLigne': '10'}, {'numLigne': '81'}, {'numLigne': 'C20'}, {'numLigne': 'LO'}]"
CACE,Centre de Carquefou,47.29710622,-1.49005046,"[{'numLigne': '75'}, {'numLigne': '85'}, {'numLigne': '95'}, {'numLigne': 'E5'}]"
CADO,Cadoire,47.25673385,-1.4880866,"[{'numLigne': '107'}, {'numLigne': '117'}, {'numLigne': '127'}, {'numLigne': '147'}, {'numLigne': '157'}, {'numLigne': '80'}, {'numLigne': '87'}]"
CAGE,Chalonges,47.27613635,-1.42939758,"[{'numLigne': '127'}, {'numLigne': '137'}]"
CAHL,Charlière,47.32102226,-1.55057037,[{'numLigne': 'LCN'}]
CAIO,Caillou Blanc,47.29867619,-1.58548503,[{'numLigne': 'LCO'}]
CALI,Californie,47.19124301,-1.58444378,"[{'numLigne': '30'}, {'numLigne': '36'}]"
CANC,Canclaux,47.2138367,-1.57477131,"[{'numLigne': '11'}, {'numLigne': '23'}, {'numLigne': 'C1'}, {'numLigne': 'C3'}]"
CAPE,Capellia,47.27971448,-1.5549768,"[{'numLigne': '116'}, {'numLigne': '86'}]"
CARQ,Carquefou,47.30365167,-1.48548819,"[{'numLigne': '75'}, {'numLigne': '85'}, {'numLigne': '95'}, {'numLigne': 'E5'}]"
CAST,Castorama,47.25889176,-1.50715847,[{'numLigne': '77'}]
CATI,Cartier,47.26816466,-1.45556222,"[{'numLigne': '117'}, {'numLigne': '135'}, {'numLigne': '157'}, {'numLigne': '87'}]"
CATV,CAT Vertonne,47.18416147,-1.48210907,[{'numLigne': '142'}]
CAUX,Château D'Aux,47.18536593,-1.67455481,"[{'numLigne': '138'}, {'numLigne': '158'}, {'numLigne': '78'}, {'numLigne': '88'}, {'numLigne': 'E8'}]"
CBAC,Bac de Couëron,47.20598337,-1.75170597,"[{'numLigne': '131'}, {'numLigne': '71'}]"
CBEA,Charbonneau,47.30068698,-1.49070416,"[{'numLigne': '75'}, {'numLigne': '85'}, {'numLigne': '95'}, {'numLigne': 'E5'}]"
CBGE,Chapeau Berger,47.17100393,-1.46875604,"[{'numLigne': '102'}, {'numLigne': '112'}, {'numLigne': '122'}, {'numLigne': '192'}, {'numLigne': '28'}, {'numLigne': '42'}, {'numLigne': '60'}, {'numLigne': '97'}, {'numLigne': 'E4'}]"
CBIN,Corbinerie,47.16161915,-1.54216964,"[{'numLigne': '104'}, {'numLigne': 'C4'}]"
CBLE,Chemin Bleu,47.17822772,-1.52501183,[{'numLigne': '97'}]
CBOU,Couëron Bougon,47.22508102,-1.73386051,[{'numLigne': '91'}]
CBRD,Claude Bernard,47.223022,-1.61180052,"[{'numLigne': '59'}, {'numLigne': 'C3'}]"
CBSS,Cambronne,47.2065888,-1.50644117,"[{'numLigne': '152'}, {'numLigne': '162'}, {'numLigne': 'C9'}]"
CBTE,Choblèterie,47.13620786,-1.46153344,[{'numLigne': '47'}]
CCAN,Couchant,47.26838555,-1.59953772,"[{'numLigne': '109'}, {'numLigne': '179'}]"
CCDI,Cochardières,47.22994281,-1.63320361,"[{'numLigne': '50'}, {'numLigne': '93'}]"
CCHA,Couchant,47.27010426,-1.5139192,"[{'numLigne': 'C6'}, {'numLigne': 'LC'}]"
CCLA,Cimetière de la Classerie,47.17135033,-1.55806356,[{'numLigne': '33'}]
CCOU,Champ de Courses,47.24456069,-1.56114747,"[{'numLigne': '26'}, {'numLigne': 'C20'}]"
CCRE,Chêne Creux,47.17042966,-1.54879087,"[{'numLigne': '30'}, {'numLigne': 'LS'}]"
CDAN,Chêne des Anglais,47.26144899,-1.5730954,"[{'numLigne': '126'}, {'numLigne': '2'}, {'numLigne': '2B'}, {'numLigne': '96'}, {'numLigne': 'C2'}]"
CDCO,Cité des Congrès,47.21367185,-1.54501797,[{'numLigne': '4'}]
CDMA,Champ de Manoeuvre,47.27270482,-1.50074174,"[{'numLigne': '115'}, {'numLigne': '95'}]"
CEDR,Cèdre,47.29944073,-1.56025341,[{'numLigne': 'LCO'}]
CEER,Chapellerie,47.28291508,-1.42312581,[{'numLigne': '135'}]
CELL,Le Cellier,47.32361957,-1.3477192,[{'numLigne': '67'}]
CFOI,Champ de Foire,47.12415033,-1.61890054,[{'numLigne': '98'}]
CGAU,Cimetière de la Gaudinière,47.24319834,-1.58273839,"[{'numLigne': '59'}, {'numLigne': '96'}, {'numLigne': 'C20'}]"
CGLA,Chêne Gala,47.1831538,-1.53923829,[{'numLigne': '97'}]
CHAB,Chabossière,47.21536358,-1.68222404,"[{'numLigne': '91'}, {'numLigne': 'E1'}, {'numLigne': 'NBI'}]"
CHBE,Chambelles,47.23162967,-1.53058634,[{'numLigne': '10'}]
CHER,La Cochère,47.20044448,-1.77824516,"[{'numLigne': '128'}, {'numLigne': 'E8'}]"
CHFL,Champ Fleuri,47.14406886,-1.52571786,"[{'numLigne': '104'}, {'numLigne': 'C4'}]"
CHGN,Châtaigniers,47.22206655,-1.60287205,"[{'numLigne': 'C20'}, {'numLigne': 'C3'}, {'numLigne': 'LO'}]"
CHIN,La Chesnaie,47.28165303,-1.53751539,[{'numLigne': 'LCE'}]
CHLI,Cholière,47.25102707,-1.60672562,"[{'numLigne': '116'}, {'numLigne': '179'}, {'numLigne': '50'}]"
CHME,Charmes,47.19080195,-1.46104727,[{'numLigne': '27'}]
CHNI,Charbonnière,47.2636751,-1.64232461,"[{'numLigne': '119'}, {'numLigne': '129'}, {'numLigne': '189'}, {'numLigne': '89'}]"
CHOC,Chocolaterie,47.242706,-1.5279488,"[{'numLigne': '11'}, {'numLigne': 'C1'}, {'numLigne': 'LN'}]"
CHPO,Champonnière,47.16365142,-1.50573699,[{'numLigne': '47'}]
CHRE,Chalâtres,47.23108993,-1.538613,"[{'numLigne': 'C1'}, {'numLigne': 'LN'}]"
CHSS,Chaussée,47.17664867,-1.52106736,[{'numLigne': '97'}]
CHTE,Châtelets,47.19725099,-1.54052347,"[{'numLigne': '162'}, {'numLigne': '27'}, {'numLigne': '28'}, {'numLigne': '36'}, {'numLigne': '38'}, {'numLigne': 'C4'}, {'numLigne': 'C9'}]"
CHVE,Chauvais,47.33733351,-1.57163166,[{'numLigne': 'LCN'}]
CHZY,Chanzy,47.22356385,-1.54547135,"[{'numLigne': 'C1'}, {'numLigne': 'C6'}, {'numLigne': 'LN'}]"
CIFA,CIFAM,47.26672891,-1.48814027,"[{'numLigne': '187'}, {'numLigne': '77'}]"
CIGL,Chai Gallais,47.13687684,-1.72161486,[{'numLigne': '108'}]
CIVL,Circuit du Vallon,47.27365771,-1.447351,[{'numLigne': '135'}]
CJOS,Cimetière de St-Joseph-de-Porterie,47.26813697,-1.52158403,"[{'numLigne': '115'}, {'numLigne': '75'}]"
CLAM,Clos Ami,47.21214757,-1.65554467,"[{'numLigne': '50'}, {'numLigne': '91'}, {'numLigne': 'NBI'}]"
CLBO,Clos Bonnet,47.18917694,-1.56358856,[{'numLigne': '97'}]
CLET,Clétras,47.25552965,-1.51075294,"[{'numLigne': '80'}, {'numLigne': '85'}]"
CLGE,Chalonges,47.18916104,-1.47255701,"[{'numLigne': '102'}, {'numLigne': '112'}, {'numLigne': '122'}, {'numLigne': '152'}, {'numLigne': '27'}, {'numLigne': '60'}, {'numLigne': 'C9'}]"
CLMO,Cimetière La Montagne,47.18729268,-1.68645864,"[{'numLigne': '138'}, {'numLigne': '158'}, {'numLigne': '78'}]"
CLNA,Colonac,47.22513023,-1.60283325,"[{'numLigne': 'C20'}, {'numLigne': 'LO'}]"
CLOT,Clotais,47.19302513,-1.71820783,"[{'numLigne': '128'}, {'numLigne': '138'}, {'numLigne': '158'}, {'numLigne': '78'}]"
CLPT,Clépettre,47.29664257,-1.54707526,[{'numLigne': 'LCE'}]
CLRO,Clos Roux,47.19812466,-1.74978398,"[{'numLigne': '128'}, {'numLigne': '138'}, {'numLigne': '158'}, {'numLigne': '78'}]"
CLSE,Closeaux,47.23995337,-1.62759856,[{'numLigne': '50'}]
CLTT,Châlet,47.22936286,-1.54443781,[{'numLigne': 'C6'}]
CLUE,Clouet,47.16753189,-1.51090184,[{'numLigne': '47'}]
CLZE,Clouzeaux,47.17930576,-1.49272643,[{'numLigne': 'E4'}]
CMAR,Cirque - Marais,47.21803334,-1.55723184,"[{'numLigne': '12'}, {'numLigne': '23'}, {'numLigne': '2B'}, {'numLigne': '3B'}, {'numLigne': 'C2'}, {'numLigne': 'LO'}]"
CMCI,Clémencière,47.26954128,-1.43554844,"[{'numLigne': '127'}, {'numLigne': '135'}, {'numLigne': '137'}, {'numLigne': '67'}, {'numLigne': 'C7'}]"
CMLL,Charmille,47.25708257,-1.60611395,"[{'numLigne': '116'}, {'numLigne': '179'}, {'numLigne': '50'}, {'numLigne': '79'}]"
CMNE,Commune 1871,47.19933781,-1.49970975,"[{'numLigne': '102'}, {'numLigne': '27'}]"
CMOU,Clos du Moulin,47.14511753,-1.52130508,"[{'numLigne': '104'}, {'numLigne': 'C4'}]"
CMRA,Cormerais,47.19475301,-1.62715773,"[{'numLigne': '131'}, {'numLigne': '81'}]"
CMSY,Carrière Misery,47.19978561,-1.58008758,"[{'numLigne': '81'}, {'numLigne': 'C20'}, {'numLigne': 'LO'}]"
CMUS,Camus,47.21921361,-1.57291706,"[{'numLigne': '11'}, {'numLigne': '23'}, {'numLigne': 'C1'}, {'numLigne': 'C3'}, {'numLigne': 'C6'}]"
CNAV,Chantiers Navals,47.20895696,-1.56727727,"[{'numLigne': '1'}, {'numLigne': '11'}, {'numLigne': '1B'}, {'numLigne': '23'}, {'numLigne': 'C1'}, {'numLigne': 'LO'}]"
CNCE,Chenonceau,47.27263937,-1.43444392,"[{'numLigne': '127'}, {'numLigne': '137'}]"
CNGO,Congo,47.24067675,-1.60913647,"[{'numLigne': '59'}, {'numLigne': '89'}]"
CNLA,Canal,47.216118,-1.47170042,"[{'numLigne': '162'}, {'numLigne': 'C9'}]"
CNNT,Chemin Nantais,47.28869323,-1.43372399,[{'numLigne': '135'}]
CNON,Chinon,47.27416824,-1.42899425,"[{'numLigne': '127'}, {'numLigne': '137'}, {'numLigne': '67'}]"
CNTR,Centaure,47.1700726,-1.62717988,[{'numLigne': '36'}]
CNVR,Chêne Vert,47.28625269,-1.43950764,[{'numLigne': '135'}]
COAY,Corlay,47.20794884,-1.64412854,[{'numLigne': '81'}]
COCH,Cochard,47.22402387,-1.55052864,"[{'numLigne': '2B'}, {'numLigne': 'C1'}, {'numLigne': 'C6'}]"
COET,Les Couëts,47.18064454,-1.58674555,"[{'numLigne': '2'}, {'numLigne': '3'}, {'numLigne': '3B'}]"
COHO,Chohonnière,47.26319622,-1.4860353,[{'numLigne': '87'}]
COLI,Colinière,47.23588381,-1.508414,"[{'numLigne': '12'}, {'numLigne': '127'}, {'numLigne': '137'}, {'numLigne': '147'}, {'numLigne': '157'}, {'numLigne': '87'}]"
COMM,Commerce,47.21357223,-1.55598188,"[{'numLigne': '1'}, {'numLigne': '11'}, {'numLigne': '2'}, {'numLigne': '23'}, {'numLigne': '26'}, {'numLigne': '2B'}, {'numLigne': '3'}, {'numLigne': '3B'}, {'numLigne': '54'}, {'numLigne': 'C1'}, {'numLigne': 'C2'}, {'numLigne': 'C3'}, {'numLigne': 'LC'}, {'numLigne': 'LN'}, {'numLigne': 'LO'}, {'numLigne': 'NA'}]"
CONI,Corniche,47.25261848,-1.59440839,[{'numLigne': '79'}]
COQU,Coquelicots,47.22246368,-1.72890142,[{'numLigne': '91'}]
CORA,Conraie,47.26092905,-1.58840441,"[{'numLigne': '109'}, {'numLigne': '116'}, {'numLigne': '2B'}, {'numLigne': '50'}, {'numLigne': '89'}]"
COST,Cousteau,47.23987594,-1.51293285,"[{'numLigne': '1B'}, {'numLigne': 'C7'}]"
COTA,Coutancière,47.30620126,-1.56008462,"[{'numLigne': '116'}, {'numLigne': '126'}, {'numLigne': '86'}]"
COUD,Coudray,47.23213372,-1.542391,[{'numLigne': 'C6'}]
CP3R,Chapelles,47.1652164,-1.53965688,[{'numLigne': '33'}]
CP4L,Chapelle Laënnec,47.23536751,-1.63783808,[{'numLigne': '93'}]
CPER,Copernic,47.21489962,-1.56467059,"[{'numLigne': '11'}, {'numLigne': '23'}, {'numLigne': 'C1'}, {'numLigne': 'C3'}]"
CPGT,Capitaine Grant,47.26183568,-1.66944367,"[{'numLigne': '139'}, {'numLigne': '149'}, {'numLigne': '159'}, {'numLigne': '169'}, {'numLigne': '69'}]"
CPRE,Chaupières,47.24317344,-1.49505175,"[{'numLigne': '147'}, {'numLigne': '157'}, {'numLigne': '87'}]"
CPTE,Chapelet,47.1324438,-1.64221491,[{'numLigne': '98'}]
CQGU,Chat-qui-Guette,47.19196413,-1.69711679,"[{'numLigne': '138'}, {'numLigne': '158'}, {'numLigne': '78'}, {'numLigne': 'E8'}]"
CQLU,Coqueluchon,47.18383096,-1.47032832,[{'numLigne': '42'}]
CRAI,Clairais,47.27556478,-1.43862013,"[{'numLigne': '127'}, {'numLigne': '135'}, {'numLigne': '137'}, {'numLigne': 'C7'}]"
CRBE,Corberie,47.15241896,-1.52381138,"[{'numLigne': '104'}, {'numLigne': 'C4'}]"
CRCE,Courocerie,47.2517659,-1.49937116,"[{'numLigne': '127'}, {'numLigne': '147'}, {'numLigne': '157'}, {'numLigne': '80'}, {'numLigne': '87'}]"
CREZ,Château de Rezé,47.18480505,-1.559703,"[{'numLigne': '2'}, {'numLigne': '3'}, {'numLigne': '3B'}]"
CRME,Crémetterie,47.21827436,-1.60840954,[{'numLigne': '23'}]
CRNO,Corbon,47.21332134,-1.46092737,"[{'numLigne': '162'}, {'numLigne': 'C9'}]"
CROU,Chemin Rouge,47.25169783,-1.51761998,"[{'numLigne': '1B'}, {'numLigne': '77'}, {'numLigne': '80'}, {'numLigne': '85'}]"
CRPO,Criport,47.15831755,-1.50363779,[{'numLigne': '47'}]
CRQU,Place du Cirque,47.21669457,-1.55687002,"[{'numLigne': '11'}, {'numLigne': '2'}, {'numLigne': '23'}, {'numLigne': '2B'}, {'numLigne': '3B'}, {'numLigne': 'C1'}, {'numLigne': 'C2'}, {'numLigne': 'C6'}, {'numLigne': 'LC'}, {'numLigne': 'LN'}, {'numLigne': 'LO'}]"
CRRO,Claire Roman,47.15472868,-1.59131723,[{'numLigne': '38'}]
CRSA,Croissant,47.24101799,-1.52994279,"[{'numLigne': 'C1'}, {'numLigne': 'LN'}]"
CRTI,Crétinières,47.2765335,-1.55315709,"[{'numLigne': '116'}, {'numLigne': '86'}]"
CRVA,Cravate,47.24327939,-1.5882992,[{'numLigne': '79'}]
CSAY,Chassay,47.24585103,-1.48492755,[{'numLigne': '80'}]
CSCL,Cimetière St-Clair,47.2166407,-1.59295454,[{'numLigne': '23'}]
CSER,La Chapelle-sur-Erdre,47.29942423,-1.55005779,"[{'numLigne': '116'}, {'numLigne': '126'}, {'numLigne': '86'}, {'numLigne': '96'}, {'numLigne': 'LCE'}, {'numLigne': 'LCN'}, {'numLigne': 'LCO'}]"
CSGR,Cassegrain,47.1876792,-1.48738031,[{'numLigne': '42'}]
CSHB,Carrières,47.20824349,-1.6382025,[{'numLigne': '91'}]
CSIB,Clos Siban,47.21023004,-1.64588445,[{'numLigne': '91'}]
CSMP,Casimir Périer,47.23198412,-1.56816468,"[{'numLigne': '10'}, {'numLigne': '26'}]"
CSRI,Classerie,47.16817448,-1.55875707,[{'numLigne': '33'}]
CSTA,Collège Ste-Anne,47.29495652,-1.49241167,"[{'numLigne': '105'}, {'numLigne': '135'}]"
CSTE,Casterneau,47.22714308,-1.53277404,"[{'numLigne': '11'}, {'numLigne': '12'}]"
CSVA,Conservatoire,47.20705845,-1.5327755,"[{'numLigne': '26'}, {'numLigne': '5'}, {'numLigne': 'LS'}]"
CTAR,Cotalard,47.28614972,-1.53770908,[{'numLigne': 'LCE'}]
CTBO,Coteaux,47.18437689,-1.66932799,[{'numLigne': '78'}]
CTEU,Caboteurs,47.18638564,-1.58743057,[{'numLigne': '36'}]
CTIE,Châtelier,47.18484027,-1.59313035,[{'numLigne': '36'}]
CTLI,Courteline,47.23647823,-1.58700659,"[{'numLigne': 'C20'}, {'numLigne': 'LO'}]"
CTNS,Carterons,47.21822349,-1.73928815,"[{'numLigne': '131'}, {'numLigne': '71'}]"
CTOR,Clos Toreau,47.19439301,-1.52908506,"[{'numLigne': '4'}, {'numLigne': 'LS'}]"
CTRE,Chantrerie,47.28171379,-1.51687336,"[{'numLigne': '115'}, {'numLigne': '75'}, {'numLigne': 'C6'}, {'numLigne': 'LC'}]"
CTYY,Coty,47.2490792,-1.48806811,"[{'numLigne': '137'}, {'numLigne': 'C7'}]"
CUGA,Gare de Couëron,47.22181322,-1.72435658,[{'numLigne': '91'}]
CUIE,Chausserie,47.14946482,-1.70434728,[{'numLigne': '98'}]
CUPI,Coupries,47.19158591,-1.46731259,"[{'numLigne': '152'}, {'numLigne': '60'}]"
CURI,Curie,47.19046894,-1.48744749,[{'numLigne': '27'}]
CUVI,Cuvier,47.21071002,-1.57401403,"[{'numLigne': '11'}, {'numLigne': '23'}, {'numLigne': 'C1'}]"
CVBL,Cheveux Blancs,47.26554693,-1.63505413,"[{'numLigne': '119'}, {'numLigne': '129'}, {'numLigne': '189'}, {'numLigne': '89'}]"
CVDO,Cimetière de Vieux Doulon,47.23849235,-1.50040266,"[{'numLigne': '147'}, {'numLigne': '157'}, {'numLigne': '87'}]"
CVER,Chapeau Verni,47.18911155,-1.50928208,"[{'numLigne': '172'}, {'numLigne': '4'}, {'numLigne': '42'}]"
CVLE,Chevalerie,47.2522148,-1.54517072,[{'numLigne': '26'}]
CVNI,Chauvinière,47.25148527,-1.57210222,[{'numLigne': 'C20'}]
CVRN,Cheverny,47.24548843,-1.60539129,"[{'numLigne': '129'}, {'numLigne': '139'}, {'numLigne': '149'}, {'numLigne': '159'}, {'numLigne': '169'}, {'numLigne': '189'}, {'numLigne': '3B'}, {'numLigne': '50'}, {'numLigne': '89'}]"
CVTI,Convention,47.21145223,-1.58662535,"[{'numLigne': '10'}, {'numLigne': '11'}]"
CXFS,Croix des Fosses,47.21251409,-1.46628916,[{'numLigne': '60'}]
CZIN,Chézine,47.23380498,-1.5993729,[{'numLigne': '89'}]
DAKK,Danemark,47.26097867,-1.49857702,"[{'numLigne': '77'}, {'numLigne': '85'}]"
DALB,Dalby,47.22564089,-1.5292279,"[{'numLigne': '11'}, {'numLigne': '12'}, {'numLigne': '1B'}]"
DANU,Danube,47.30455016,-1.50183802,"[{'numLigne': '85'}, {'numLigne': '95'}]"
DAVU,Davum,47.26475017,-1.49620153,[{'numLigne': '77'}]
DAYA,Dayat,47.20086884,-1.67426307,"[{'numLigne': '50'}, {'numLigne': '81'}, {'numLigne': '91'}]"
DCAN,Duchesse Anne-Château,47.21630505,-1.54705966,"[{'numLigne': '1'}, {'numLigne': '1B'}, {'numLigne': '4'}]"
DCFF,Du Chaffault,47.20748089,-1.58157605,"[{'numLigne': '1'}, {'numLigne': '1B'}]"
DEMO,Desmoulins,47.23347087,-1.52133117,"[{'numLigne': '11'}, {'numLigne': '1B'}]"
DERV,Dervallières,47.22889513,-1.59808602,"[{'numLigne': 'C20'}, {'numLigne': 'C6'}, {'numLigne': 'LO'}]"
DIAN,Diane,47.23966265,-1.57811502,"[{'numLigne': '12'}, {'numLigne': 'LO'}]"
DIDE,Espace Diderot,47.18374838,-1.56298168,"[{'numLigne': '2'}, {'numLigne': '3'}, {'numLigne': '30'}, {'numLigne': '33'}, {'numLigne': '3B'}, {'numLigne': 'LS'}]"
DLCR,Delacroix,47.22360815,-1.58936784,[{'numLigne': 'C3'}]
DLLE,Drillet,47.2348355,-1.66623091,[{'numLigne': '93'}]
DLME,Delorme,47.2157127,-1.56459769,"[{'numLigne': '11'}, {'numLigne': '23'}, {'numLigne': '26'}, {'numLigne': '54'}, {'numLigne': 'C1'}, {'numLigne': 'C3'}, {'numLigne': 'C6'}]"
DMAI,Domaine,47.17836307,-1.46954327,"[{'numLigne': '42'}, {'numLigne': 'E4'}]"
DMUR,Dumont d'Urville,47.22587166,-1.63633918,"[{'numLigne': '50'}, {'numLigne': '93'}]"
DNAI,Danais,47.21368938,-1.58969749,[{'numLigne': '23'}]
DOCE,Doucet,47.27796857,-1.63266866,[{'numLigne': '179'}]
DOLT,Dolto,47.21650999,-1.63617274,[{'numLigne': '71'}]
DOME,Doumer,47.22182421,-1.57826385,"[{'numLigne': '11'}, {'numLigne': '23'}, {'numLigne': 'C1'}, {'numLigne': 'C3'}, {'numLigne': 'C6'}]"
DOTT,Douettée,47.20775964,-1.49833108,"[{'numLigne': '152'}, {'numLigne': '162'}, {'numLigne': '30'}, {'numLigne': 'C9'}]"
DPTE,Déportés,47.19715306,-1.49228559,[{'numLigne': '27'}]
DRAD,Désirade,47.27784786,-1.48417198,[{'numLigne': '85'}]
DRID,Druides,47.23861884,-1.50742048,"[{'numLigne': '12'}, {'numLigne': '127'}, {'numLigne': '137'}, {'numLigne': '147'}, {'numLigne': '157'}, {'numLigne': '87'}]"
DRLA,Drouillard,47.18013487,-1.67733351,"[{'numLigne': '138'}, {'numLigne': '158'}, {'numLigne': '88'}]"
DROI,Droitière,47.30794338,-1.37325031,[{'numLigne': '67'}]
DSAI,Desaix,47.22624932,-1.54328641,"[{'numLigne': 'C1'}, {'numLigne': 'LN'}]"
DSNE,Desnerie,47.27793949,-1.54081936,[{'numLigne': 'LCE'}]
DUKA,Dukas,47.23488283,-1.60209701,[{'numLigne': '89'}]
DUNA,Dunant,47.24391964,-1.52129149,[{'numLigne': '11'}]
DUTR,Duguay Trouin,47.22429674,-1.61665433,[{'numLigne': 'C3'}]
EBCA,Embarcadère,47.19408468,-1.64653306,"[{'numLigne': '81'}, {'numLigne': 'NBI'}]"
ECBU,Écobuts,47.19393956,-1.50764703,"[{'numLigne': '102'}, {'numLigne': '28'}]"
ECHO,Échoppes,47.14306629,-1.68643787,"[{'numLigne': '88'}, {'numLigne': '98'}]"
ECOS,Écosse,47.21511407,-1.52622014,[{'numLigne': 'C3'}]
ECSU,École Centrale-Audencia,47.24812474,-1.55161943,"[{'numLigne': '2'}, {'numLigne': '2B'}, {'numLigne': '66'}, {'numLigne': '75'}, {'numLigne': '80'}, {'numLigne': 'C20'}, {'numLigne': 'E5'}]"
ECTE,Enchanterie,47.23061054,-1.52337263,"[{'numLigne': '11'}, {'numLigne': '1B'}]"
EDIP,Edith Piaf,47.22827482,-1.62408849,[{'numLigne': 'C3'}]
EDNA,Édit de Nantes,47.21441073,-1.56846833,"[{'numLigne': '11'}, {'numLigne': '23'}, {'numLigne': 'C1'}, {'numLigne': 'C3'}]"
EDRE,Erdreau,47.29114983,-1.50127235,"[{'numLigne': '75'}, {'numLigne': 'E5'}]"
EGAN,Eglantine,47.23518001,-1.5881015,"[{'numLigne': 'C20'}, {'numLigne': 'LO'}]"
EGLI,Egalité,47.20922862,-1.58844494,"[{'numLigne': '1'}, {'numLigne': '10'}, {'numLigne': '11'}, {'numLigne': '1B'}, {'numLigne': '81'}, {'numLigne': 'C20'}, {'numLigne': 'LO'}]"
EINS,Einstein,47.26413048,-1.57104228,"[{'numLigne': '50'}, {'numLigne': '96'}]"
ELIS,Eglise,47.16854462,-1.72018447,"[{'numLigne': '118'}, {'numLigne': '98'}]"
EMBE,Embellie,47.26545322,-1.51834723,"[{'numLigne': 'C6'}, {'numLigne': 'LC'}]"
ENCO,Ennerie - Corbon,47.14187671,-1.70496308,"[{'numLigne': '108'}, {'numLigne': '98'}]"
EPEL,Écoles,47.19752281,-1.7591214,"[{'numLigne': '128'}, {'numLigne': '138'}, {'numLigne': '148'}, {'numLigne': '78'}]"
EPIN,Épinais,47.13623648,-1.61055297,[{'numLigne': '98'}]
EPYY,Epinay,47.29234637,-1.48692971,[{'numLigne': '85'}]
EQPE,Équipement,47.22389035,-1.57577086,[{'numLigne': '54'}]
ERAC,Erdre Active,47.28314269,-1.54410872,[{'numLigne': 'LCE'}]
ERDI,Éraudière,47.24264226,-1.53521809,"[{'numLigne': '23'}, {'numLigne': 'C6'}]"
ESCA,Escall,47.19939893,-1.503282,"[{'numLigne': '102'}, {'numLigne': '27'}]"
ESOR,Écoles,47.14665823,-1.52907292,"[{'numLigne': '104'}, {'numLigne': 'C4'}]"
ESUE,Eugène Sue,47.23329312,-1.59589711,[{'numLigne': '89'}]
EUCA,Europe,47.26016529,-1.50407499,[{'numLigne': '77'}]
EUVE,Europe,47.17300614,-1.47629459,"[{'numLigne': '102'}, {'numLigne': '192'}, {'numLigne': '28'}]"
EVET,École Vétérinaire,47.29095344,-1.52336413,"[{'numLigne': '115'}, {'numLigne': '75'}]"
EVRD,Evardière,47.29879071,-1.56616373,[{'numLigne': 'LCO'}]
FACU,Facultés,47.24682767,-1.55536079,"[{'numLigne': '2'}, {'numLigne': '2B'}, {'numLigne': '75'}, {'numLigne': 'C20'}, {'numLigne': 'LC'}, {'numLigne': 'LN'}]"
FADI,Fardière,47.19841902,-1.6069459,"[{'numLigne': '81'}, {'numLigne': 'C20'}, {'numLigne': 'E1'}]"
FALI,Fallières,47.22502725,-1.57942376,[{'numLigne': '54'}]
FANE,Faneurs,47.21377376,-1.70193386,"[{'numLigne': '101'}, {'numLigne': '71'}, {'numLigne': '91'}]"
FATA,Fantaisie,47.2526975,-1.56822243,"[{'numLigne': '116'}, {'numLigne': '126'}, {'numLigne': '86'}, {'numLigne': '96'}]"
FAUV,Fauvelière,47.28299968,-1.50531922,"[{'numLigne': '115'}, {'numLigne': '95'}]"
FBAU,François Baudry,47.26228759,-1.67199149,"[{'numLigne': '139'}, {'numLigne': '149'}, {'numLigne': '159'}, {'numLigne': '169'}, {'numLigne': '69'}]"
FBLA,Fresche Blanc,47.25290149,-1.55686119,"[{'numLigne': '116'}, {'numLigne': '26'}, {'numLigne': '2B'}, {'numLigne': '86'}, {'numLigne': 'LC'}, {'numLigne': 'LN'}]"
FDDR,Fac de Droit,47.24369562,-1.55209091,"[{'numLigne': '80'}, {'numLigne': 'E5'}]"
FDLE,Fac de Lettres,47.24541603,-1.55181925,"[{'numLigne': '2B'}, {'numLigne': '80'}, {'numLigne': 'C20'}, {'numLigne': 'E5'}]"
FERI,Ferrière,47.2443575,-1.59102357,"[{'numLigne': '109'}, {'numLigne': '3'}, {'numLigne': '3B'}, {'numLigne': '79'}]"
FFAU,Félix Faure,47.22698903,-1.56938663,"[{'numLigne': '26'}, {'numLigne': '3'}, {'numLigne': '3B'}]"
FGRI,Fief Guérin,47.14388036,-1.66049085,[{'numLigne': '88'}]
FLAN,Flandre,47.28575364,-1.54681321,[{'numLigne': 'LCE'}]
FLEU,Fleuriaye,47.29920327,-1.5001299,"[{'numLigne': '75'}, {'numLigne': '85'}, {'numLigne': '95'}, {'numLigne': 'E5'}]"
FLRI,Floride,47.21348186,-1.60369399,[{'numLigne': '11'}]
FLTR,Flora Tristan,47.17579736,-1.54372512,"[{'numLigne': '104'}, {'numLigne': 'C4'}]"
FLUR,Fleurs,47.21590864,-1.71809144,"[{'numLigne': '131'}, {'numLigne': '71'}]"
FMIT,François Mitterrand,47.22203468,-1.63790515,"[{'numLigne': '1'}, {'numLigne': '111'}, {'numLigne': '1B'}, {'numLigne': '50'}, {'numLigne': '71'}, {'numLigne': '91'}, {'numLigne': '93'}]"
FNLL,Fresnel,47.24304037,-1.5233441,[{'numLigne': '11'}]
FNSO,Fenaison,47.26970664,-1.59248947,"[{'numLigne': '109'}, {'numLigne': '179'}]"
FOCH,Foch-Cathédrale,47.21925313,-1.55044639,"[{'numLigne': '11'}, {'numLigne': '12'}, {'numLigne': '4'}, {'numLigne': 'C1'}, {'numLigne': 'C6'}, {'numLigne': 'LC'}, {'numLigne': 'LN'}]"
FOND,Fonderies,47.20642091,-1.543699,[{'numLigne': '5'}]
FORU,Forum d'Orvault,47.25407117,-1.61515199,"[{'numLigne': '119'}, {'numLigne': '129'}, {'numLigne': '139'}, {'numLigne': '189'}, {'numLigne': '89'}]"
FOTA,Fontaine,47.20554189,-1.4891854,"[{'numLigne': '122'}, {'numLigne': '152'}, {'numLigne': 'C9'}]"
FOUL,Foulquier,47.30972771,-1.54630536,[{'numLigne': '86'}]
FRAC,Frachon,47.21895013,-1.62022527,"[{'numLigne': '1'}, {'numLigne': '1B'}]"
FRBA,Frébaudière,47.2724675,-1.62762836,"[{'numLigne': '179'}, {'numLigne': '79'}]"
FRCH,Fraîches,47.17455019,-1.48948053,"[{'numLigne': '102'}, {'numLigne': '192'}, {'numLigne': '28'}]"
FRET,Forêt,47.2443432,-1.57554795,[{'numLigne': 'C2'}]
FRGA,Frégate,47.23524567,-1.47610372,[{'numLigne': '80'}]
FRII,François II,47.21848493,-1.68311956,"[{'numLigne': '101'}, {'numLigne': '71'}]"
FRKL,Franklin,47.22590418,-1.61968194,[{'numLigne': 'C3'}]
FRMO,Frémoire,47.15328061,-1.4763428,[{'numLigne': '47'}]
FRNE,Frênes,47.2532385,-1.487572,"[{'numLigne': '107'}, {'numLigne': '117'}, {'numLigne': '127'}, {'numLigne': '147'}, {'numLigne': '157'}, {'numLigne': '80'}]"
FRON,Frêne Rond,47.19026089,-1.4964168,"[{'numLigne': '102'}, {'numLigne': '172'}, {'numLigne': '28'}]"
FRRR,Frères Rousseau,47.12616001,-1.62855094,[{'numLigne': '98'}]
FTAB,Félix Tableau,47.18801317,-1.54738515,"[{'numLigne': '97'}, {'numLigne': 'C4'}]"
FTDO,Fructidor,47.24010857,-1.55963273,"[{'numLigne': '26'}, {'numLigne': '2B'}]"
GADO,Gandonnière,47.30703916,-1.54054855,[{'numLigne': 'LCN'}]
GAGN,Gagnerie,47.23223523,-1.50709391,[{'numLigne': '12'}]
GAIL,Garillère,47.1925106,-1.52075715,[{'numLigne': '30'}]
GALH,Galheur,47.16673615,-1.57991548,[{'numLigne': '38'}]
GAMB,Gambetta,47.22361937,-1.53846843,"[{'numLigne': '11'}, {'numLigne': '12'}]"
GATI,Gâtine,47.21324994,-1.66012141,[{'numLigne': '91'}]
GAUT,Gautellerie,47.17741844,-1.60209659,"[{'numLigne': '36'}, {'numLigne': '78'}, {'numLigne': '88'}]"
GBLO,Grand Blottereau,47.22975836,-1.51114692,[{'numLigne': '12'}]
GBNI,Guiblinière,47.29240267,-1.52042422,"[{'numLigne': '115'}, {'numLigne': '75'}]"
GBTA,Grande-Bretagne,47.26220784,-1.50223727,[{'numLigne': '77'}]
GCAR,Grand Carcouët,47.23134815,-1.5921839,"[{'numLigne': '54'}, {'numLigne': 'C20'}, {'numLigne': 'LO'}]"
GCEN,Grande Censive,47.25205925,-1.54978913,"[{'numLigne': '26'}, {'numLigne': '2B'}, {'numLigne': '66'}, {'numLigne': '75'}, {'numLigne': '80'}]"
GCHE,Gachet,47.29264726,-1.52388364,"[{'numLigne': '115'}, {'numLigne': '75'}]"
GCSO,Glacisol,47.25150915,-1.50437908,[{'numLigne': '80'}]
GDCH,Gare de Chantenay,47.19779136,-1.59368488,"[{'numLigne': '10'}, {'numLigne': '81'}, {'numLigne': 'C1'}, {'numLigne': 'C20'}, {'numLigne': 'E1'}]"
GDEN,Goldens,47.16205211,-1.49967993,[{'numLigne': '47'}]
GDFI,Grand Fief,47.12571619,-1.62574668,[{'numLigne': '98'}]
GDNN,Gendronnerie,47.12702253,-1.6400967,[{'numLigne': '98'}]
GDOU,Grande Ouche,47.18133597,-1.57966252,"[{'numLigne': '2'}, {'numLigne': '3'}, {'numLigne': '3B'}]"
GDPI,Grande Pièce,47.1990716,-1.51039424,"[{'numLigne': '102'}, {'numLigne': '27'}]"
GDRE,Guindré,47.23922045,-1.53787973,[{'numLigne': 'C6'}]
GELL,Grande Noëlle,47.16232808,-1.50220869,[{'numLigne': '47'}]
GERA,Géraudière,47.26173999,-1.56716305,"[{'numLigne': '126'}, {'numLigne': '50'}, {'numLigne': '96'}]"
GESV,Gesvrine,47.26981296,-1.55213869,"[{'numLigne': '116'}, {'numLigne': '86'}]"
GEVR,Gesvres,47.26362612,-1.54864554,"[{'numLigne': '116'}, {'numLigne': '86'}]"
GGAU,Gergaudière,47.28965609,-1.58588183,[{'numLigne': 'LCO'}]
GGNO,Grignon,47.21647189,-1.46643829,"[{'numLigne': '162'}, {'numLigne': 'C9'}]"
GGUI,Gauguin,47.16692925,-1.55562893,[{'numLigne': '33'}]
GIAR,Gilarderie,47.18589884,-1.68252224,"[{'numLigne': '138'}, {'numLigne': '158'}, {'numLigne': '78'}, {'numLigne': 'E8'}]"
GIBR,Gibraye,47.2049566,-1.51755738,"[{'numLigne': '152'}, {'numLigne': '162'}, {'numLigne': 'C9'}]"
GIND,Gare d'Indre,47.20496928,-1.66254284,"[{'numLigne': '50'}, {'numLigne': '81'}, {'numLigne': '91'}, {'numLigne': 'NBI'}]"
GIQU,Gicquelière,47.25816395,-1.45842451,"[{'numLigne': '117'}, {'numLigne': '127'}, {'numLigne': '137'}, {'numLigne': '157'}, {'numLigne': '87'}, {'numLigne': 'C7'}]"
GLAU,Grillaud,47.22027019,-1.58158736,[{'numLigne': 'C3'}]
GLDE,Grande Lande,47.19229235,-1.49761927,"[{'numLigne': '102'}, {'numLigne': '172'}, {'numLigne': '28'}]"
GLEI,Grolerie,47.17268334,-1.47244142,"[{'numLigne': '102'}, {'numLigne': '112'}, {'numLigne': '122'}, {'numLigne': '192'}, {'numLigne': '28'}, {'numLigne': '60'}]"
GLIE,Gilière,47.29942955,-1.55257368,"[{'numLigne': '116'}, {'numLigne': '126'}, {'numLigne': '86'}, {'numLigne': '96'}, {'numLigne': 'LCE'}]"
GLNE,Galarne,47.20824284,-1.52968912,"[{'numLigne': '26'}, {'numLigne': '5'}, {'numLigne': 'LS'}]"
GLOU,Grange au Loup,47.26383873,-1.51545241,[{'numLigne': '95'}]
GMAR,Gare Maritime,47.20705322,-1.57295377,"[{'numLigne': '1'}, {'numLigne': '1B'}, {'numLigne': '81'}, {'numLigne': 'C20'}, {'numLigne': 'E1'}, {'numLigne': 'LO'}, {'numLigne': 'N1'}]"
GMOL,Guy Mollet,47.2492802,-1.55474569,"[{'numLigne': '2B'}, {'numLigne': '75'}, {'numLigne': 'C20'}, {'numLigne': 'LC'}, {'numLigne': 'LN'}]"
GNRA,Greneraie,47.19948912,-1.53288896,"[{'numLigne': '152'}, {'numLigne': '162'}, {'numLigne': '27'}, {'numLigne': '28'}, {'numLigne': '36'}, {'numLigne': '38'}, {'numLigne': '4'}, {'numLigne': 'C4'}, {'numLigne': 'C9'}, {'numLigne': 'E8'}, {'numLigne': 'LS'}]"
GOBI,Gobinière,47.24935726,-1.58702581,"[{'numLigne': '109'}, {'numLigne': '79'}]"
GOLF,Golf,47.23624819,-1.60431345,[{'numLigne': '89'}]
GONI,Gournière,47.26837456,-1.54938768,"[{'numLigne': '116'}, {'numLigne': '86'}]"
GPOR,Grand Portail,47.20142037,-1.52364591,"[{'numLigne': '152'}, {'numLigne': '162'}, {'numLigne': 'C9'}]"
GPRO,Gare de Pont Rousseau,47.19308111,-1.54933848,"[{'numLigne': '2'}, {'numLigne': '3'}]"
GRAM,Grammoire,47.18357282,-1.4726878,[{'numLigne': '42'}]
GRCH,Grand Chemin,47.19727269,-1.7838164,[{'numLigne': '128'}]
GRET,Gare de l'Etat,47.2039646,-1.56043723,"[{'numLigne': '5'}, {'numLigne': '5B'}, {'numLigne': 'LC'}, {'numLigne': 'LN'}, {'numLigne': 'LO'}, {'numLigne': 'LS'}]"
GRIM,Grimm,47.21618687,-1.6455347,"[{'numLigne': '50'}, {'numLigne': '71'}, {'numLigne': '91'}]"
GRMA,Grimau,47.22829746,-1.65476667,[{'numLigne': '93'}]
GROR,Garenne,47.26507792,-1.62774187,[{'numLigne': '89'}]
GRPO,Gripots,47.19248962,-1.49168774,[{'numLigne': '27'}]
GRTE,Garotterie,47.22436152,-1.60687526,[{'numLigne': '59'}]
GRVI,Guérivières,47.20518393,-1.4673541,[{'numLigne': '60'}]
GRZI,Grezillières,47.21436811,-1.47831696,"[{'numLigne': '162'}, {'numLigne': 'C9'}]"
GSAN,George Sand,47.16582084,-1.54577558,[{'numLigne': '33'}]
GSEN,Grasse Noue,47.28024494,-1.58188223,[{'numLigne': 'LCO'}]
GSIN,Grassinière,47.16574186,-1.50786789,[{'numLigne': '47'}]
GSNO,Gare Nord,47.21782151,-1.54214643,"[{'numLigne': '1'}, {'numLigne': '1B'}]"
GSSU,Gare Sud,47.21531024,-1.54183218,"[{'numLigne': '5'}, {'numLigne': '54'}, {'numLigne': 'C2'}, {'numLigne': 'C3'}, {'numLigne': 'LS'}, {'numLigne': 'NA'}]"
GTAE,Grootaers,47.23971251,-1.5845989,"[{'numLigne': '12'}, {'numLigne': '59'}, {'numLigne': '96'}, {'numLigne': 'C20'}, {'numLigne': 'LO'}]"
GTLA,Garettes-Landreau,47.2730864,-1.63058567,"[{'numLigne': '179'}, {'numLigne': '79'}]"
GTVE,Gaston Veil,47.21016254,-1.55560165,"[{'numLigne': '26'}, {'numLigne': 'LN'}, {'numLigne': 'LO'}, {'numLigne': 'LS'}]"
GULO,Guilloterie,47.17254507,-1.55735797,[{'numLigne': '33'}]
GURO,Gustave Roch,47.20406998,-1.55198669,[{'numLigne': '26'}]
GVNO,Gare de Vertou Nord,47.18707351,-1.47848557,"[{'numLigne': '27'}, {'numLigne': '42'}]"
GVSU,Gare de Vertou Sud,47.18560278,-1.47666336,"[{'numLigne': '112'}, {'numLigne': '122'}, {'numLigne': '42'}, {'numLigne': '60'}]"
HALU,Haluchère-Batignolles,47.24936057,-1.52287449,"[{'numLigne': '1'}, {'numLigne': '11'}, {'numLigne': '187'}, {'numLigne': '1B'}, {'numLigne': '23'}, {'numLigne': '77'}, {'numLigne': '80'}, {'numLigne': '85'}, {'numLigne': '95'}, {'numLigne': 'C1'}, {'numLigne': 'LN'}]"
HARO,Harouys,47.21689016,-1.56706301,"[{'numLigne': '11'}, {'numLigne': '23'}, {'numLigne': '26'}, {'numLigne': '54'}, {'numLigne': 'C1'}, {'numLigne': 'C3'}, {'numLigne': 'C6'}]"
HAUB,Haubans,47.21462644,-1.53001825,"[{'numLigne': '5'}, {'numLigne': 'C3'}, {'numLigne': 'LS'}]"
HAVE,Halvêque,47.25746288,-1.52028452,"[{'numLigne': '1'}, {'numLigne': '1B'}, {'numLigne': '95'}]"
HBAN,Hangar à Bananes,47.20048109,-1.5728701,"[{'numLigne': '5'}, {'numLigne': '5B'}, {'numLigne': 'LC'}, {'numLigne': 'LN'}, {'numLigne': 'LO'}, {'numLigne': 'LS'}, {'numLigne': 'N2'}]"
HBDE,Halbarderie,47.26838103,-1.43798042,"[{'numLigne': '127'}, {'numLigne': '135'}, {'numLigne': '137'}, {'numLigne': '67'}, {'numLigne': 'C7'}]"
HBLI,Hôpital Bellier,47.22130324,-1.52428746,"[{'numLigne': '1'}, {'numLigne': '1B'}]"
HBRA,Herbray,47.15048552,-1.47099504,[{'numLigne': '47'}]
HCOU,Hauts de Couëron,47.24056965,-1.6697021,[{'numLigne': '93'}]
HDIE,Haudrière,47.15447112,-1.46758151,[{'numLigne': '47'}]
HERM,Hermeland,47.22996584,-1.6168089,"[{'numLigne': '59'}, {'numLigne': 'C6'}]"
HFLE,Hameau Fleuri,47.25097895,-1.5896581,[{'numLigne': '79'}]
HFVE,Haute Forêt,47.16831427,-1.4656595,"[{'numLigne': '112'}, {'numLigne': '122'}, {'numLigne': '192'}, {'numLigne': '97'}]"
HGNR,Haute Gournière,47.26786564,-1.54577813,[{'numLigne': 'E5'}]
HILE,Haute Ile,47.19464662,-1.55632322,[{'numLigne': '36'}]
HIND,Haute Indre,47.19540815,-1.6499352,"[{'numLigne': '81'}, {'numLigne': 'NBI'}]"
HIPP,Hippodrome,47.24705518,-1.5672813,"[{'numLigne': '26'}, {'numLigne': 'C20'}]"
HLAN,Haute Lande,47.15386538,-1.52365156,"[{'numLigne': '104'}, {'numLigne': 'C4'}]"
HLLR,Hillière,47.28782561,-1.42995678,[{'numLigne': '135'}]
HMLL,Houmaille,47.18910344,-1.58696919,[{'numLigne': '36'}]
HODI,Hôtel Dieu,47.21207602,-1.55494778,"[{'numLigne': '11'}, {'numLigne': '1B'}, {'numLigne': '2'}, {'numLigne': '26'}, {'numLigne': '3'}, {'numLigne': '3B'}, {'numLigne': '54'}, {'numLigne': 'C2'}, {'numLigne': 'C3'}, {'numLigne': 'LC'}, {'numLigne': 'LS'}, {'numLigne': 'NA'}]"
HOGR,Hongrie,47.21590797,-1.52403029,[{'numLigne': 'C3'}]
HOSE,Housseau,47.28107173,-1.49829865,"[{'numLigne': '115'}, {'numLigne': '95'}]"
HPLA,Hôpital Laënnec,47.23688456,-1.64086027,[{'numLigne': '93'}]
HREG,Hôtel de Région,47.2103433,-1.52614007,[{'numLigne': '26'}]
HRLL,Hérelle,47.20163226,-1.58669837,[{'numLigne': 'C1'}]
HVCQ,Mairie de Carquefou,47.29889879,-1.49031126,"[{'numLigne': '75'}, {'numLigne': '85'}, {'numLigne': '95'}]"
HVNA,Hôtel de Ville,47.21776749,-1.55443643,"[{'numLigne': '11'}, {'numLigne': '12'}, {'numLigne': 'C1'}, {'numLigne': 'C6'}, {'numLigne': 'LC'}, {'numLigne': 'LN'}]"
ICAM,ICAM,47.27365801,-1.50186879,"[{'numLigne': '115'}, {'numLigne': '95'}]"
ICOU,ICO,47.23850738,-1.63820369,[{'numLigne': '93'}]
IDFR,Île de France,47.16941272,-1.46785057,"[{'numLigne': '28'}, {'numLigne': '42'}, {'numLigne': '60'}, {'numLigne': '97'}]"
IDLO,Îles de Loire,47.21072691,-1.49034916,[{'numLigne': '30'}]
IDNA,Ile de Nantes,47.20631111,-1.53893314,"[{'numLigne': '4'}, {'numLigne': '5'}]"
IMPR,Imprimeurs,47.2386647,-1.67008841,[{'numLigne': '93'}]
INLA,Internat Laënnec,47.23500246,-1.64058805,[{'numLigne': '93'}]
INRE,Indre,47.20116504,-1.66833797,"[{'numLigne': '131'}, {'numLigne': '81'}, {'numLigne': '91'}, {'numLigne': 'E1'}]"
IROI,Iroise,47.24818171,-1.53654509,[{'numLigne': '23'}]
ISLE,Islettes,47.26333978,-1.47625538,"[{'numLigne': '107'}, {'numLigne': '147'}, {'numLigne': '87'}]"
IUTH,IUT,47.29788592,-1.50453644,"[{'numLigne': '85'}, {'numLigne': '95'}]"
JALI,Jalière,47.26414967,-1.59697649,"[{'numLigne': '109'}, {'numLigne': '179'}, {'numLigne': '50'}, {'numLigne': '79'}, {'numLigne': '89'}]"
JAME,Jamet,47.21007683,-1.60317888,"[{'numLigne': '1'}, {'numLigne': '1B'}, {'numLigne': 'LO'}]"
JANA,Jaunais,47.17605351,-1.53370492,"[{'numLigne': '30'}, {'numLigne': 'LS'}]"
JAPY,Japy,47.25928122,-1.5116844,[{'numLigne': '77'}]
JARI,Jarriais,47.21290228,-1.71905335,"[{'numLigne': '101'}, {'numLigne': '91'}, {'numLigne': 'E1'}]"
JAUR,Jacqueline Auriol,47.27133541,-1.47140072,[{'numLigne': '77'}]
JBAR,Jean Bart,47.19920583,-1.67546,"[{'numLigne': '50'}, {'numLigne': '81'}]"
JBNA,Jeanne Bernard,47.23590325,-1.59066715,"[{'numLigne': '59'}, {'numLigne': '89'}]"
JCAR,Jacques Cartier,47.22398045,-1.63633093,"[{'numLigne': '50'}, {'numLigne': '93'}]"
JCOU,Joncours,47.22000538,-1.58672381,"[{'numLigne': '10'}, {'numLigne': '11'}, {'numLigne': '23'}, {'numLigne': 'C1'}]"
JDGA,Jardins de Gaïa,47.15758297,-1.67828442,[{'numLigne': '88'}]
JFER,Jules Ferry,47.25072273,-1.48739206,"[{'numLigne': '107'}, {'numLigne': '117'}, {'numLigne': '127'}, {'numLigne': '147'}, {'numLigne': '157'}, {'numLigne': '80'}]"
JFRA,Jean Fraix,47.18603448,-1.54195702,[{'numLigne': '97'}]
JGUE,Jaguère,47.17552586,-1.56774566,[{'numLigne': '38'}]
JHDI,Jahardières,47.12540871,-1.64248443,[{'numLigne': '98'}]
JJCE,Jean Jaurès,47.30132429,-1.54979885,"[{'numLigne': '116'}, {'numLigne': '126'}, {'numLigne': '86'}]"
JJNA,Jean Jaurès,47.21838897,-1.56003382,"[{'numLigne': '3'}, {'numLigne': '3B'}]"
JLIE,Joliverie,47.18992188,-1.51952684,[{'numLigne': '30'}]
JLVE,Joliverie,47.18965147,-1.51738021,"[{'numLigne': '172'}, {'numLigne': '30'}, {'numLigne': '4'}, {'numLigne': '42'}, {'numLigne': 'LS'}]"
JMAC,Jean Macé,47.20055415,-1.5892624,"[{'numLigne': '10'}, {'numLigne': '81'}, {'numLigne': 'C1'}, {'numLigne': 'C20'}, {'numLigne': 'LO'}]"
JMLI,Jean Moulin,47.20712579,-1.59992166,"[{'numLigne': '1'}, {'numLigne': '11'}, {'numLigne': '1B'}, {'numLigne': '81'}]"
JMON,Jean Monnet,47.16626072,-1.46511753,"[{'numLigne': '102'}, {'numLigne': '112'}, {'numLigne': '122'}, {'numLigne': '192'}, {'numLigne': '97'}]"
JNAI,Jaunaie,47.21889815,-1.72783718,"[{'numLigne': '131'}, {'numLigne': '71'}, {'numLigne': '91'}]"
JNEA,Jauneau,47.27374646,-1.45013606,[{'numLigne': '135'}]
JNIG,Jean Ingres,47.22227374,-1.59680573,[{'numLigne': 'C3'}]
JNLI,Jonelière,47.25173237,-1.54077058,[{'numLigne': '26'}]
JOTE,Jouetterie,47.13181702,-1.66289073,[{'numLigne': '98'}]
JPER,Jean Perrin,47.18123083,-1.56072427,"[{'numLigne': '30'}, {'numLigne': 'LS'}]"
JPTR,Jupiter,47.28480858,-1.4560817,[{'numLigne': '77'}]
JROS,Jean Rostand,47.24579942,-1.59364253,"[{'numLigne': '3'}, {'numLigne': '3B'}]"
JTIC,Justice,47.20947259,-1.63128829,[{'numLigne': '91'}]
JUIV,Juiverie,47.21077751,-1.62477596,"[{'numLigne': '81'}, {'numLigne': '91'}]"
JUME,Jumelière,47.29430114,-1.4877315,[{'numLigne': '85'}]
JVAL,Jules Vallès,47.17343751,-1.5708955,[{'numLigne': '38'}]
JVNA,Jules Verne,47.24891698,-1.51728725,"[{'numLigne': '11'}, {'numLigne': '12'}]"
JVRA,Janvraie,47.19994542,-1.61234453,"[{'numLigne': '81'}, {'numLigne': 'C20'}]"
KERE,Keren,47.24441135,-1.53349459,[{'numLigne': 'C6'}]
KOEN,Koenig,47.1981254,-1.61551398,"[{'numLigne': '131'}, {'numLigne': '40'}, {'numLigne': '81'}]"
KOUF,Koufra,47.25025891,-1.53100788,"[{'numLigne': '23'}, {'numLigne': 'C6'}]"
LABE,Lac de Beaulieu,47.21942035,-1.69244445,"[{'numLigne': '101'}, {'numLigne': '71'}]"
LACH,L'Arche,47.21291368,-1.70847863,"[{'numLigne': '101'}, {'numLigne': '71'}, {'numLigne': '91'}]"
LADO,Ladoumègue,47.29614184,-1.48653946,[{'numLigne': '85'}]
LAGE,Largeau,47.1950328,-1.50997182,"[{'numLigne': '102'}, {'numLigne': '28'}, {'numLigne': '30'}]"
LAHA,La Haie,47.26094875,-1.47502649,"[{'numLigne': '105'}, {'numLigne': '107'}, {'numLigne': '135'}, {'numLigne': '147'}, {'numLigne': '87'}]"
LAIL,Les Ailes,47.17116491,-1.57416373,[{'numLigne': '38'}]
LALL,Lallié,47.22668625,-1.54635903,"[{'numLigne': 'C1'}, {'numLigne': 'C6'}]"
LAMA,Lamartine,47.21649203,-1.578799,[{'numLigne': 'C3'}]
LANA,Launay,47.26554341,-1.63253983,"[{'numLigne': '119'}, {'numLigne': '129'}, {'numLigne': '189'}, {'numLigne': '89'}]"
LAUR,Lauriers,47.20470843,-1.6047661,"[{'numLigne': '1'}, {'numLigne': '1B'}]"
LAXX,La Croix,47.16527571,-1.48670499,[{'numLigne': '97'}]
LBAU,Les Bauches,47.26336633,-1.67723271,"[{'numLigne': '139'}, {'numLigne': '149'}, {'numLigne': '159'}, {'numLigne': '169'}, {'numLigne': '69'}]"
LBER,Lindbergh,47.15502934,-1.5983375,"[{'numLigne': '38'}, {'numLigne': '98'}]"
LBOS,La Brosse,47.33298939,-1.56959138,[{'numLigne': 'LCN'}]
LBPI,L'Ebaupin,47.17161474,-1.51000653,[{'numLigne': '97'}]
LBUS,Les Buissons,47.27828439,-1.44357626,[{'numLigne': '135'}]
LCAR,Le Cardo,47.26187678,-1.58437255,"[{'numLigne': '109'}, {'numLigne': '116'}, {'numLigne': '2'}, {'numLigne': '2B'}, {'numLigne': '50'}, {'numLigne': '59'}, {'numLigne': '89'}, {'numLigne': 'C2'}]"
LCBU,Le Corbusier,47.19018691,-1.56860367,"[{'numLigne': '30'}, {'numLigne': '97'}, {'numLigne': 'LS'}]"
LCEE,La Carrée,47.16847775,-1.5439079,"[{'numLigne': '104'}, {'numLigne': '30'}, {'numLigne': 'C4'}, {'numLigne': 'LS'}]"
LCLE,La Coulée,47.26013301,-1.57471905,[{'numLigne': 'C2'}]
LCNE,Le Chêne,47.16526458,-1.48432715,[{'numLigne': '97'}]
LCOG,La Cogne,47.28758066,-1.55674105,"[{'numLigne': '116'}, {'numLigne': '126'}, {'numLigne': '86'}, {'numLigne': '96'}, {'numLigne': 'LCE'}]"
LCSE,La Close,47.24083446,-1.57277848,[{'numLigne': 'C2'}]
LCTE,La Côte,47.28205187,-1.56044113,"[{'numLigne': '126'}, {'numLigne': '96'}]"
LDAS,Landas,47.16933769,-1.51076745,[{'numLigne': '47'}]
LDRE,Landreau,47.2324793,-1.51597058,"[{'numLigne': '1'}, {'numLigne': '137'}, {'numLigne': '147'}, {'numLigne': '157'}, {'numLigne': '87'}]"
LDSS,Landas,47.17471102,-1.55989306,[{'numLigne': '33'}]
LEBP,L'Ebaupin,47.28430869,-1.44387011,[{'numLigne': '135'}]
LECH,Lechat,47.20408023,-1.58093056,"[{'numLigne': '10'}, {'numLigne': 'C1'}]"
LEGU,Leygues,47.20314541,-1.54200777,[{'numLigne': '26'}]
LEVO,Levoyer,47.193909,-1.58179815,[{'numLigne': '30'}]
LFAU,Les Faulx,47.15722956,-1.52270565,"[{'numLigne': '104'}, {'numLigne': 'C4'}]"
LFER,La Ferme,47.26424888,-1.68034232,"[{'numLigne': '139'}, {'numLigne': '141'}, {'numLigne': '149'}, {'numLigne': '159'}, {'numLigne': '169'}, {'numLigne': '69'}]"
LFLE,Laurier Fleuri,47.18834076,-1.48372835,"[{'numLigne': '27'}, {'numLigne': '42'}]"
LFOR,La Forêt,47.14947537,-1.63938699,[{'numLigne': '88'}]
LFVR,Lefeuvre,47.26686052,-1.49502977,[{'numLigne': '77'}]
LGAR,La Garde,47.25576216,-1.50918227,[{'numLigne': '80'}]
LGOF,Le Goffic,47.23043335,-1.56342357,"[{'numLigne': '12'}, {'numLigne': '23'}, {'numLigne': '2B'}, {'numLigne': 'C2'}, {'numLigne': 'LO'}]"
LGRI,La Grille,47.25101807,-1.48119652,"[{'numLigne': '117'}, {'numLigne': '127'}, {'numLigne': '137'}, {'numLigne': '157'}, {'numLigne': 'C7'}]"
LGTH,Lagathu,47.1803629,-1.53652635,[{'numLigne': '97'}]
LHAC,La Hache,47.26222776,-1.49893123,[{'numLigne': '77'}]
LHER,La Herdrie,47.19778397,-1.45414308,"[{'numLigne': '152'}, {'numLigne': '162'}, {'numLigne': '27'}]"
LHIE,La Haie,47.29013176,-1.54249845,[{'numLigne': 'LCE'}]
LHLE,Le Halleray,47.26975159,-1.45660101,"[{'numLigne': '117'}, {'numLigne': '135'}, {'numLigne': '157'}, {'numLigne': '87'}]"
LHOU,La Houssais,47.17420074,-1.55367431,"[{'numLigne': '30'}, {'numLigne': 'LS'}]"
LHPI,L'Hopitau,47.27226546,-1.55152318,"[{'numLigne': '116'}, {'numLigne': '86'}]"
LIBE,Libération,47.17728552,-1.67896934,"[{'numLigne': '138'}, {'numLigne': '158'}, {'numLigne': '88'}, {'numLigne': 'E8'}]"
LILA,Lilas,47.1376758,-1.46889686,[{'numLigne': '47'}]
LION,Lionnière,47.21866696,-1.6959573,"[{'numLigne': '101'}, {'numLigne': '71'}]"
LIPP,Lippmann,47.23834028,-1.52115348,[{'numLigne': '11'}]
LITT,Littré,47.21772316,-1.58232618,[{'numLigne': 'C3'}]
LJOS,Léon Jost,47.23629112,-1.56332179,"[{'numLigne': '26'}, {'numLigne': '2B'}]"
LLGR,Léo Lagrange,47.29727857,-1.55493247,"[{'numLigne': '116'}, {'numLigne': '126'}, {'numLigne': '86'}, {'numLigne': '96'}, {'numLigne': 'LCE'}]"
LLIO,Les Lions,47.24991585,-1.61550625,"[{'numLigne': '149'}, {'numLigne': '159'}, {'numLigne': '169'}, {'numLigne': '3B'}, {'numLigne': '69'}]"
LLMO,Le Clémois,47.13729352,-1.72257048,"[{'numLigne': '108'}, {'numLigne': '118'}, {'numLigne': '98'}]"
LLOR,La Lorie,47.23524557,-1.65700442,[{'numLigne': '93'}]
LMAR,La Marche,47.18067739,-1.65914283,[{'numLigne': '78'}]
LMBR,Lambert,47.17086407,-1.53964307,"[{'numLigne': '30'}, {'numLigne': 'LS'}]"
LMEE,La martinière,47.20633168,-1.78491058,[{'numLigne': '128'}]
LMIC,Louise Michel,47.2194594,-1.6132562,[{'numLigne': '59'}]
LMNE,Lemoine,47.23547339,-1.54752596,"[{'numLigne': '10'}, {'numLigne': '23'}]"
LMRI,Lamoricière,47.21445183,-1.57256911,"[{'numLigne': '11'}, {'numLigne': '23'}, {'numLigne': 'C1'}, {'numLigne': 'C3'}]"
LMTA,La Montagne,47.18845833,-1.6891889,"[{'numLigne': '138'}, {'numLigne': '158'}, {'numLigne': '78'}, {'numLigne': 'E8'}]"
LNAI,Le Nain,47.22663531,-1.60096082,"[{'numLigne': 'C20'}, {'numLigne': 'C6'}, {'numLigne': 'LO'}]"
LNOU,La Noue,47.14038786,-1.60769065,[{'numLigne': '98'}]
LNTT,Linot,47.26537241,-1.52614758,"[{'numLigne': '115'}, {'numLigne': '75'}, {'numLigne': 'C6'}, {'numLigne': 'LC'}]"
LOIR,Loire,47.24840854,-1.48656524,[{'numLigne': '80'}]
LOMB,Lombarderie,47.23358033,-1.55558686,"[{'numLigne': '10'}, {'numLigne': '23'}, {'numLigne': '2B'}]"
LONG,Longchamp,47.23484287,-1.58212605,"[{'numLigne': '3'}, {'numLigne': '3B'}]"
LPBA,Bac du Pellerin,47.20289715,-1.75490668,[{'numLigne': '78'}]
LPEL,Le Pellerin,47.20066234,-1.75949387,"[{'numLigne': '128'}, {'numLigne': '138'}, {'numLigne': '148'}, {'numLigne': '78'}, {'numLigne': 'E8'}]"
LPLE,La Plée,47.19318013,-1.46266938,"[{'numLigne': '152'}, {'numLigne': '162'}, {'numLigne': '27'}, {'numLigne': '60'}]"
LPME,La Plume,47.1949216,-1.50520704,"[{'numLigne': '102'}, {'numLigne': '28'}]"
LRAY,Le Gray 1,47.28422067,-1.5868064,[{'numLigne': 'LCO'}]
LRCH,La Roche,47.2164307,-1.51917709,[{'numLigne': 'C3'}]
LRHE,Les Roches,47.26318375,-1.58036688,"[{'numLigne': '116'}, {'numLigne': '2B'}, {'numLigne': '50'}, {'numLigne': '59'}, {'numLigne': 'C2'}]"
LRNE,Lourneau,47.199568,-1.49007979,"[{'numLigne': '102'}, {'numLigne': '122'}, {'numLigne': '152'}, {'numLigne': 'C9'}]"
LRYA,Le Gray 2,47.28331767,-1.58422529,[{'numLigne': 'LCO'}]
LSAL,La Salle,47.21420285,-1.68967199,"[{'numLigne': '91'}, {'numLigne': 'E1'}]"
LSLL,Les Salles,47.2503646,-1.53590959,[{'numLigne': '23'}]
LSOU,La Source,47.30567326,-1.55170423,"[{'numLigne': '116'}, {'numLigne': '126'}, {'numLigne': '86'}]"
LSYY,Léon Say,47.22960794,-1.56918121,[{'numLigne': '26'}]
LTOU,Le Tour,47.15160805,-1.68945617,[{'numLigne': '88'}]
LUNI,Lieu Unique,47.21601675,-1.54492372,"[{'numLigne': '54'}, {'numLigne': 'C2'}, {'numLigne': 'C3'}, {'numLigne': 'LS'}, {'numLigne': 'NA'}]"
LYBR,Lycée Brottier,47.16057526,-1.67771637,[{'numLigne': '88'}]
LYCQ,Lycée Estienne d'Orves,47.279391,-1.49195803,[{'numLigne': '115'}]
LYOR,Lycée d'Orbigny,47.154266,-1.68041263,"[{'numLigne': '108'}, {'numLigne': '128'}, {'numLigne': '138'}, {'numLigne': '158'}, {'numLigne': '88'}]"
LYPE,Lycée Appert,47.25107132,-1.61069729,"[{'numLigne': '111'}, {'numLigne': '119'}, {'numLigne': '129'}, {'numLigne': '139'}, {'numLigne': '189'}, {'numLigne': '89'}]"
LYRI,Lycée Rieffel,47.25547237,-1.64250784,"[{'numLigne': '149'}, {'numLigne': '159'}, {'numLigne': '69'}]"
LZCA,Lusançay,47.20267428,-1.58254569,[{'numLigne': 'C1'}]
MAAR,Maillardière,47.27395657,-1.63409107,"[{'numLigne': '179'}, {'numLigne': '79'}]"
MACH,MIN,47.20166722,-1.5537944,"[{'numLigne': '26'}, {'numLigne': 'LC'}]"
MADO,Mandon,47.16049398,-1.4706502,[{'numLigne': '47'}]
MAGA,Gare de Mauves,47.29318073,-1.3898298,[{'numLigne': '67'}]
MAI8,8 Mai,47.18921858,-1.55170053,"[{'numLigne': '2'}, {'numLigne': '3'}, {'numLigne': '38'}, {'numLigne': '3B'}, {'numLigne': '97'}]"
MALL,Mail,47.26905318,-1.61162839,"[{'numLigne': '179'}, {'numLigne': '79'}, {'numLigne': '89'}]"
MARR,Maison d'Arrêt,47.26640432,-1.50333251,[{'numLigne': '95'}]
MASS,Massigné,47.29887798,-1.57954203,[{'numLigne': 'LCO'}]
MATI,Matière,47.27639977,-1.44886845,[{'numLigne': '77'}]
MAUC,Centre De Mauves,47.29677512,-1.3928604,[{'numLigne': '67'}]
MAZE,Mazères,47.31362172,-1.35060463,[{'numLigne': '67'}]
MBLA,Mont Blanc,47.17673773,-1.55589286,"[{'numLigne': '30'}, {'numLigne': 'LS'}]"
MBOU,Mairie de Bouguenais,47.17901016,-1.61872647,[{'numLigne': '36'}]
MBRU,Moulin Brûlé,47.25946869,-1.65458039,"[{'numLigne': '139'}, {'numLigne': '149'}, {'numLigne': '159'}, {'numLigne': '169'}, {'numLigne': '69'}]"
MBSE,Moulin Boisseau,47.28838631,-1.48413143,[{'numLigne': '85'}]
MCAS,Moulin Cassé,47.25627992,-1.4691378,"[{'numLigne': '107'}, {'numLigne': '117'}, {'numLigne': '127'}, {'numLigne': '137'}, {'numLigne': '147'}, {'numLigne': '157'}, {'numLigne': '87'}, {'numLigne': 'C7'}]"
MCCO,Marché Commun,47.25967252,-1.49993852,[{'numLigne': '85'}]
MCHA,Mairie de Chantenay,47.20636707,-1.58783853,"[{'numLigne': '10'}, {'numLigne': '11'}, {'numLigne': '81'}, {'numLigne': 'C20'}, {'numLigne': 'LO'}]"
MCOU,Mairie de Couëron,47.21216975,-1.72706163,"[{'numLigne': '101'}, {'numLigne': '91'}, {'numLigne': 'E1'}]"
MCUR,Madame Curie,47.18912957,-1.55433651,[{'numLigne': '97'}]
MDAR,Maison des Arts,47.21192952,-1.61745893,"[{'numLigne': '23'}, {'numLigne': '59'}, {'numLigne': '81'}, {'numLigne': '91'}]"
MDEL,Mandel,47.20250088,-1.53707135,[{'numLigne': '26'}]
MDLA,Moulin des Landes,47.26199275,-1.48158345,"[{'numLigne': '107'}, {'numLigne': '147'}, {'numLigne': '87'}]"
MDNE,Madeleine,47.27534959,-1.48346404,[{'numLigne': '85'}]
MDOU,Mairie de Doulon,47.22699143,-1.51848401,"[{'numLigne': '1'}, {'numLigne': '12'}, {'numLigne': '137'}, {'numLigne': '147'}, {'numLigne': '157'}, {'numLigne': '87'}]"
MDPO,Moulin de Porterie,47.27583508,-1.51221479,"[{'numLigne': '115'}, {'numLigne': '75'}, {'numLigne': 'C6'}, {'numLigne': 'LC'}]"
MDRE,Madoire,47.26505118,-1.6389868,"[{'numLigne': '119'}, {'numLigne': '129'}, {'numLigne': '189'}, {'numLigne': '89'}]"
MDSI,Mondésir,47.21782484,-1.56871754,"[{'numLigne': '11'}, {'numLigne': '23'}, {'numLigne': '26'}, {'numLigne': '54'}, {'numLigne': 'C1'}, {'numLigne': 'C3'}, {'numLigne': 'C6'}]"
MDTH,Médiathèque,47.21116565,-1.56056518,"[{'numLigne': '1'}, {'numLigne': '11'}, {'numLigne': '1B'}, {'numLigne': '23'}, {'numLigne': 'C1'}, {'numLigne': 'LO'}]"
MEDI,Méditerranée,47.27115536,-1.48501673,[{'numLigne': '85'}]
MELI,Méliès,47.18159213,-1.55616656,[{'numLigne': '38'}]
META,Métairie,47.21389385,-1.69850583,"[{'numLigne': '101'}, {'numLigne': '71'}, {'numLigne': '91'}, {'numLigne': 'E1'}]"
MGAL,Marie Galante,47.26417032,-1.45104526,"[{'numLigne': '117'}, {'numLigne': '135'}, {'numLigne': '157'}, {'numLigne': '87'}]"
MGCH,Monge - Chauvinière,47.25365531,-1.5745097,"[{'numLigne': '116'}, {'numLigne': '126'}, {'numLigne': '86'}, {'numLigne': '96'}]"
MGDR,Mongendrière,47.29270544,-1.55433459,"[{'numLigne': '116'}, {'numLigne': '126'}, {'numLigne': '86'}, {'numLigne': '96'}, {'numLigne': 'LCE'}]"
MGEL,Margelle,47.27271181,-1.59416606,"[{'numLigne': '109'}, {'numLigne': '179'}]"
MGIN,Mangin,47.20160574,-1.54493569,"[{'numLigne': '2'}, {'numLigne': '26'}, {'numLigne': '3'}, {'numLigne': '3B'}, {'numLigne': 'LC'}]"
MGLI,Magnoliers,47.22667075,-1.60519444,[{'numLigne': '59'}]
MGNO,Mignonnerie,47.24314439,-1.48235363,[{'numLigne': '80'}]
MGUA,Mainguais,47.28266905,-1.48544315,[{'numLigne': '85'}]
MHDI,Mahaudières,47.18892461,-1.56039923,[{'numLigne': '97'}]
MHUI,Moulin à l'Huile,47.17776199,-1.5628891,"[{'numLigne': '33'}, {'numLigne': '38'}]"
MIAI,Minais,47.25709884,-1.46615358,"[{'numLigne': '107'}, {'numLigne': '117'}, {'numLigne': '127'}, {'numLigne': '137'}, {'numLigne': '147'}, {'numLigne': '157'}, {'numLigne': '87'}, {'numLigne': 'C7'}]"
MICH,Michelet,47.23451072,-1.55737362,"[{'numLigne': '10'}, {'numLigne': '2'}, {'numLigne': '23'}, {'numLigne': '2B'}, {'numLigne': 'LC'}, {'numLigne': 'LN'}]"
MIEA,Millenia,47.12346831,-1.63085917,[{'numLigne': '98'}]
MIMO,Mimosas,47.2413208,-1.58762642,[{'numLigne': '79'}]
MIND,Mairie d'Indre,47.20071585,-1.66830435,"[{'numLigne': '50'}, {'numLigne': '81'}, {'numLigne': '91'}, {'numLigne': 'NBI'}]"
MITR,Mitrie,47.22824947,-1.52663988,"[{'numLigne': '10'}, {'numLigne': '11'}, {'numLigne': '12'}, {'numLigne': '1B'}]"
MKSU,Malakoff,47.21644994,-1.52129347,[{'numLigne': 'C3'}]
MLAN,Magellan,47.18816871,-1.4644275,[{'numLigne': '27'}]
MLCH,Morlachère,47.1619532,-1.48369475,[{'numLigne': '47'}]
MLCS,Moulin Cassé,47.15584723,-1.70984686,"[{'numLigne': '118'}, {'numLigne': '98'}]"
MLDR,Maladrie,47.18817465,-1.49415356,"[{'numLigne': '172'}, {'numLigne': '42'}]"
MLHE,Moulin Hérel,47.21943384,-1.63757971,[{'numLigne': '71'}]
MLIN,Moulin,47.18875715,-1.50370768,"[{'numLigne': '172'}, {'numLigne': '42'}]"
MLLI,Mellinet,47.21119539,-1.57563565,"[{'numLigne': '11'}, {'numLigne': '23'}, {'numLigne': 'C1'}]"
MLNE,Moulinets,47.20990911,-1.6290736,[{'numLigne': '91'}]
MLON,Mulonnière,47.26556714,-1.54984512,"[{'numLigne': '116'}, {'numLigne': '86'}]"
MLRA,Malraux,47.2543078,-1.51767585,"[{'numLigne': '1B'}, {'numLigne': '77'}]"
MMSS,Mermoz,47.19872011,-1.51552255,"[{'numLigne': '102'}, {'numLigne': '27'}, {'numLigne': '28'}]"
MNEF,Moulin Neuf,47.23021107,-1.51646831,"[{'numLigne': '137'}, {'numLigne': '147'}, {'numLigne': '157'}, {'numLigne': '87'}]"
MNFA,Manufacture,47.2188031,-1.53706201,"[{'numLigne': '1'}, {'numLigne': '1B'}]"
MNIE,Moulinier,47.13549882,-1.66580556,[{'numLigne': '98'}]
MNOT,Minoterie,47.216866,-1.72160133,"[{'numLigne': '131'}, {'numLigne': '71'}]"
MNSS,Malnoue,47.20320971,-1.50514128,[{'numLigne': '30'}]
MNTR,Ménétrier,47.24122134,-1.52387404,[{'numLigne': '11'}]
MNVE,Maison Neuve,47.27462384,-1.46726826,[{'numLigne': '77'}]
MOCT,Moulin Collet,47.20033329,-1.76620925,"[{'numLigne': '128'}, {'numLigne': '148'}]"
MOET,Mouettes,47.21055137,-1.74227284,"[{'numLigne': '131'}, {'numLigne': '71'}]"
MOIN,Moinard,47.21334839,-1.72939851,[{'numLigne': '91'}]
MONE,Moinet,47.26469759,-1.49236094,"[{'numLigne': '77'}, {'numLigne': '85'}]"
MORH,Morrhonnière - Petit Port,47.24148227,-1.55629426,"[{'numLigne': '2'}, {'numLigne': '26'}, {'numLigne': '2B'}, {'numLigne': 'LC'}, {'numLigne': 'LN'}]"
MOTE,Motte Rouge,47.228791,-1.55338727,"[{'numLigne': '2'}, {'numLigne': '2B'}, {'numLigne': 'LC'}, {'numLigne': 'LN'}]"
MOUT,Moutonnerie,47.21956936,-1.53301942,"[{'numLigne': '1'}, {'numLigne': '1B'}]"
MOVA,Mairie d'Orvault,47.27116153,-1.62369389,"[{'numLigne': '119'}, {'numLigne': '129'}, {'numLigne': '179'}, {'numLigne': '79'}, {'numLigne': '89'}]"
MOZI,Monzie,47.20339609,-1.53991144,[{'numLigne': '26'}]
MPAU,Marcel Paul,47.24576505,-1.61572851,"[{'numLigne': '119'}, {'numLigne': '159'}, {'numLigne': '3'}, {'numLigne': '3B'}, {'numLigne': '50'}, {'numLigne': '54'}]"
MPER,Millepertuis,47.22194228,-1.67954515,"[{'numLigne': '101'}, {'numLigne': '71'}]"
MPMN,Melpomène,47.2775917,-1.50003396,"[{'numLigne': '115'}, {'numLigne': '95'}]"
MPTA,Maison Poitard,47.14700488,-1.64831344,[{'numLigne': '88'}]
MQDI,Marquis de Dion,47.29709079,-1.48779883,"[{'numLigne': '75'}, {'numLigne': '85'}, {'numLigne': '95'}]"
MQLI,Mocquelière,47.23323569,-1.61863745,[{'numLigne': '59'}]
MRAI,Maraîchers,47.18483142,-1.51069199,[{'numLigne': '4'}]
MRDI,Maison Radieuse,47.18787255,-1.56646623,"[{'numLigne': '30'}, {'numLigne': '3B'}, {'numLigne': 'LS'}]"
MREZ,Mairie de Rezé,47.19125268,-1.56984416,"[{'numLigne': '30'}, {'numLigne': '97'}, {'numLigne': 'LS'}]"
MRGE,Morges,47.16495172,-1.47202356,"[{'numLigne': '47'}, {'numLigne': '97'}]"
MRIE,Maurienne,47.27541782,-1.44310885,"[{'numLigne': '127'}, {'numLigne': '137'}, {'numLigne': 'C7'}]"
MROT,Moulin Rothard,47.19590819,-1.74115678,"[{'numLigne': '128'}, {'numLigne': '138'}, {'numLigne': '158'}, {'numLigne': '78'}]"
MRRI,Marrière,47.23759212,-1.52466998,[{'numLigne': '11'}]
MRTE,Marterie,47.17846248,-1.53143532,"[{'numLigne': '30'}, {'numLigne': '97'}, {'numLigne': 'LS'}]"
MRZE,Marzilles,47.18274936,-1.47579961,"[{'numLigne': '122'}, {'numLigne': '60'}]"
MSHE,Mairie de St-Herblain,47.21093832,-1.64884522,"[{'numLigne': '50'}, {'numLigne': '91'}]"
MSLL,Marseillaise,47.20749011,-1.59188602,[{'numLigne': '11'}]
MSOR,Mairie des Sorinières,47.14882038,-1.53173735,"[{'numLigne': '104'}, {'numLigne': 'C4'}]"
MSSI,Mississipi,47.237065,-1.60939896,[{'numLigne': '89'}]
MTEI,Monteil,47.21407318,-1.54914477,"[{'numLigne': '54'}, {'numLigne': 'C2'}, {'numLigne': 'C3'}, {'numLigne': 'LS'}]"
MTLI,Martellière,47.1991668,-1.52639054,"[{'numLigne': '102'}, {'numLigne': '27'}, {'numLigne': '28'}]"
MTRA,Mortrais,47.12800978,-1.61667784,[{'numLigne': '98'}]
MTYY,Monty,47.2742143,-1.4330995,"[{'numLigne': '127'}, {'numLigne': '135'}, {'numLigne': '137'}]"
MULI,Mouline,47.32355207,-1.55300628,[{'numLigne': 'LCN'}]
MUNN,Moulin,47.19756669,-1.65158931,[{'numLigne': 'NBI'}]
MVAN,Mortier Vannerie,47.18016469,-1.49939264,"[{'numLigne': '102'}, {'numLigne': '192'}, {'numLigne': '28'}]"
MVRD,Monteverdi,47.26657684,-1.44632051,"[{'numLigne': '105'}, {'numLigne': '127'}, {'numLigne': '137'}]"
MVSI,Mauvoisins,47.19027625,-1.5256168,[{'numLigne': '4'}]
MZUR,Mazure,47.25796702,-1.48076677,"[{'numLigne': '107'}, {'numLigne': '147'}]"
NATL,Aéroport,47.15789963,-1.60132141,"[{'numLigne': '38'}, {'numLigne': 'NA'}]"
NBEL,Nouveau Bêle,47.26879307,-1.50191635,[{'numLigne': '95'}]
NBLA,Noé Blanche,47.25654693,-1.50725445,[{'numLigne': '85'}]
NCTE,Noé Cottée,47.19409498,-1.47858966,"[{'numLigne': '102'}, {'numLigne': '112'}, {'numLigne': '122'}, {'numLigne': '152'}, {'numLigne': 'C9'}]"
NDRE,Naudières,47.17309855,-1.53667449,"[{'numLigne': '30'}, {'numLigne': 'LS'}]"
NETR,Neustrie,47.17591416,-1.59339984,"[{'numLigne': '2'}, {'numLigne': '3'}, {'numLigne': '36'}, {'numLigne': '3B'}, {'numLigne': '40'}, {'numLigne': '78'}, {'numLigne': '88'}, {'numLigne': '98'}]"
NIAG,Niagara,47.30600333,-1.49333602,"[{'numLigne': '85'}, {'numLigne': '95'}]"
NILL,Nil,47.24172369,-1.60749438,"[{'numLigne': '54'}, {'numLigne': '59'}, {'numLigne': '89'}]"
NIZA,Nizan,47.20562406,-1.55130665,[{'numLigne': '5'}]
NLBR,Noë Lambert,47.23007878,-1.52849088,[{'numLigne': '10'}]
NLLA,Noë Allais,47.22036251,-1.68868129,"[{'numLigne': '101'}, {'numLigne': '71'}]"
NOAH,Noë St Jean,47.21918582,-1.73499847,"[{'numLigne': '131'}, {'numLigne': '71'}]"
NOHH,North'House,47.1958079,-1.57336123,[{'numLigne': '30'}]
NONO,Noë Nozou,47.13019092,-1.63703222,[{'numLigne': '98'}]
NOSH,Noëlles,47.24021479,-1.60420902,"[{'numLigne': '54'}, {'numLigne': '59'}]"
NRCA,Noë Rocard,47.16334738,-1.49052893,[{'numLigne': '47'}]
NRDA,Neruda,47.21756366,-1.61338063,"[{'numLigne': '1'}, {'numLigne': '1B'}, {'numLigne': '23'}, {'numLigne': '59'}]"
NVER,Noue Verrière,47.27601666,-1.57111741,[{'numLigne': 'LCO'}]
OBLA,Ouche Blanche,47.17996352,-1.56437046,[{'numLigne': '33'}]
OCAN,Océane,47.22750698,-1.63593175,"[{'numLigne': '50'}, {'numLigne': '93'}]"
OCEA,Couëron Océan,47.21345289,-1.73918909,"[{'numLigne': '131'}, {'numLigne': '71'}, {'numLigne': '91'}, {'numLigne': 'E1'}]"
OCOR,Ouche Cormier,47.26459864,-1.62333993,"[{'numLigne': '119'}, {'numLigne': '129'}, {'numLigne': '89'}]"
ODLA,Ouche des landes,47.19503341,-1.48288475,"[{'numLigne': '102'}, {'numLigne': '112'}, {'numLigne': '122'}, {'numLigne': '152'}, {'numLigne': 'C9'}]"
ODNE,Ordronneau,47.19383736,-1.5748954,"[{'numLigne': '36'}, {'numLigne': '97'}]"
OGVA,Orvault Grand Val,47.26297286,-1.59450834,"[{'numLigne': '109'}, {'numLigne': '116'}, {'numLigne': '179'}, {'numLigne': '2'}, {'numLigne': '2B'}, {'numLigne': '50'}, {'numLigne': '79'}, {'numLigne': '89'}]"
OLIV,Olivier,47.21747321,-1.72482036,"[{'numLigne': '131'}, {'numLigne': '71'}]"
OLVE,Oliveraie,47.18804171,-1.53047604,"[{'numLigne': '172'}, {'numLigne': '42'}]"
OLYM,Olympe de Gouges,47.30897242,-1.54466143,[{'numLigne': '86'}]
OMRL,Orvault - Morlière,47.2470879,-1.6033929,"[{'numLigne': '129'}, {'numLigne': '139'}, {'numLigne': '169'}, {'numLigne': '179'}, {'numLigne': '189'}, {'numLigne': '3'}, {'numLigne': '3B'}, {'numLigne': '50'}, {'numLigne': '69'}, {'numLigne': '89'}]"
ONCH,Onchère,47.20267245,-1.46704343,"[{'numLigne': '162'}, {'numLigne': '60'}]"
OQNE,Ouche Quinet,47.19603056,-1.50436169,"[{'numLigne': '102'}, {'numLigne': '28'}]"
ORNG,La Chapelle Aulnay,47.30840013,-1.5402501,[{'numLigne': 'LCN'}]
ORVA,Orvault,47.27869769,-1.64026681,"[{'numLigne': '179'}, {'numLigne': '79'}]"
OSAN,Ouessant,47.27007669,-1.44670053,"[{'numLigne': '127'}, {'numLigne': '137'}]"
OTAG,50 Otages,47.21971293,-1.55550331,"[{'numLigne': '12'}, {'numLigne': '2'}, {'numLigne': '23'}, {'numLigne': '2B'}, {'numLigne': '3B'}, {'numLigne': 'C2'}, {'numLigne': 'LO'}]"
PABO,Paix,47.18243694,-1.59229338,[{'numLigne': '36'}]
PACQ,Parc,47.27263229,-1.48393143,[{'numLigne': '85'}]
PAEB,Pablée,47.21576063,-1.74015814,"[{'numLigne': '131'}, {'numLigne': '71'}]"
PAJO,Petit Anjou,47.20584171,-1.50453728,[{'numLigne': '30'}]
PALL,Pont Allard,47.19655292,-1.66627488,"[{'numLigne': '81'}, {'numLigne': 'NBI'}]"
PAMI,Palmiers,47.19002854,-1.53299779,"[{'numLigne': '172'}, {'numLigne': '42'}]"
PAON,Papillons,47.14600562,-1.51899279,"[{'numLigne': '104'}, {'numLigne': 'C4'}]"
PAPO,Parc Potager,47.23595128,-1.52256798,[{'numLigne': '11'}]
PATR,Pâtis Rondin,47.24776219,-1.51680722,[{'numLigne': '11'}]
PB1B,Parc de la Bouvre,47.17610474,-1.61415268,"[{'numLigne': '36'}, {'numLigne': '78'}, {'numLigne': '88'}]"
PBAI,Parc Bel Air,47.17846266,-1.47470184,"[{'numLigne': '112'}, {'numLigne': '122'}, {'numLigne': '60'}]"
PBFF,Paimboeuf,47.1766516,-1.61921271,"[{'numLigne': '78'}, {'numLigne': '88'}]"
PBLE,Pâtis Brûlé,47.19926705,-1.50723684,"[{'numLigne': '102'}, {'numLigne': '27'}, {'numLigne': '30'}]"
PBOT,Poulbot,47.21402938,-1.64801795,"[{'numLigne': '50'}, {'numLigne': '91'}]"
PBRE,Petit Breton,47.21327118,-1.59931634,[{'numLigne': '11'}]
PBUY,Pé de Buzay,47.20250065,-1.81633789,[{'numLigne': '128'}]
PBYE,Port Boyer,47.24108061,-1.538808,[{'numLigne': '23'}]
PBNV,Port Boyer Navibus,47.24210322,-1.54589148,[{'numLigne': 'N3'}]
PCBI,Picabia,47.25465734,-1.57683187,"[{'numLigne': '109'}, {'numLigne': '116'}, {'numLigne': '59'}, {'numLigne': 'C2'}]"
PCDI,Picaudière,47.27970844,-1.48509905,[{'numLigne': '85'}]
PCHA,Portechaise,47.20061763,-1.52609882,"[{'numLigne': '152'}, {'numLigne': '162'}, {'numLigne': 'C9'}]"
PCLO,Petit Clos,47.20530198,-1.50991704,"[{'numLigne': '152'}, {'numLigne': '162'}, {'numLigne': 'C9'}]"
PCNN,Planchonnais,47.25348254,-1.47475875,"[{'numLigne': '117'}, {'numLigne': '127'}, {'numLigne': '137'}, {'numLigne': '157'}, {'numLigne': 'C7'}]"
PCPE,Porte de La Chapelle,47.25937477,-1.55720037,"[{'numLigne': '116'}, {'numLigne': '50'}, {'numLigne': '66'}, {'numLigne': '75'}, {'numLigne': '80'}, {'numLigne': '86'}, {'numLigne': 'E5'}, {'numLigne': 'LC'}, {'numLigne': 'LN'}]"
PCRE,Poincaré,47.2228489,-1.58521365,"[{'numLigne': '10'}, {'numLigne': '11'}, {'numLigne': '23'}, {'numLigne': 'C1'}, {'numLigne': 'C3'}, {'numLigne': 'C6'}]"
PCSI,Petite Censive,47.26050778,-1.56098728,[{'numLigne': '50'}]
PCTI,Petit Chantilly,47.25447779,-1.60063033,[{'numLigne': '79'}]
PCVO,Pontecorvo,47.246064,-1.53255611,[{'numLigne': 'C6'}]
PCZI,Pont de Chézine,47.23806578,-1.61436599,[{'numLigne': '59'}]
PDAN,Pas d'Ane,47.1813064,-1.470413,[{'numLigne': '42'}]
PDCE,Pont du Cens,47.24897479,-1.5770773,"[{'numLigne': '109'}, {'numLigne': '59'}, {'numLigne': '96'}, {'numLigne': 'C2'}, {'numLigne': 'C20'}]"
PDEA,Porteurs d'Eau,47.27151222,-1.59765073,"[{'numLigne': '109'}, {'numLigne': '179'}]"
PDOU,Porte Douillard,47.28949512,-1.51849354,"[{'numLigne': '115'}, {'numLigne': '75'}]"
PDPI,Pomme de Pin,47.26708762,-1.59534026,"[{'numLigne': '109'}, {'numLigne': '179'}]"
PDUC,Prairie au Duc,47.20303211,-1.56935604,"[{'numLigne': '5'}, {'numLigne': '5B'}, {'numLigne': 'LC'}, {'numLigne': 'LN'}, {'numLigne': 'LO'}, {'numLigne': 'LS'}]"
PEDR,Perdriaux,47.16125428,-1.48575767,[{'numLigne': '47'}]
PEGE,Pégers,47.13758868,-1.47153044,[{'numLigne': '47'}]
PELO,Pelousière,47.20775876,-1.64702227,[{'numLigne': '81'}]
PEON,Perron,47.22489224,-1.60189022,[{'numLigne': 'C6'}]
PERR,Perray,47.24749096,-1.51414241,"[{'numLigne': '11'}, {'numLigne': '12'}]"
PETR,Pétrels,47.25430074,-1.50709295,[{'numLigne': '80'}]
PFNA,Purfina,47.194575,-1.63494095,"[{'numLigne': '131'}, {'numLigne': '81'}]"
PGRI,Pagerie,47.17872222,-1.65318427,[{'numLigne': '78'}]
PGTI,Plinguetière,47.13288911,-1.61360611,[{'numLigne': '98'}]
PHTR,Parc Chantrerie,47.28617242,-1.52090098,"[{'numLigne': '115'}, {'numLigne': '75'}]"
PHVE,Pré Hervé,47.24412862,-1.51773567,"[{'numLigne': '11'}, {'numLigne': '1B'}]"
PIAO,Piano'cktail,47.17483933,-1.60639797,"[{'numLigne': '36'}, {'numLigne': '78'}, {'numLigne': '88'}]"
PIBL,Pierre Blanche,47.17205368,-1.62719445,[{'numLigne': '36'}]
PIPA,Pipay,47.22583332,-1.53691006,"[{'numLigne': '11'}, {'numLigne': '12'}]"
PIRM,Pirmil,47.19609738,-1.54268626,"[{'numLigne': '118'}, {'numLigne': '152'}, {'numLigne': '162'}, {'numLigne': '172'}, {'numLigne': '2'}, {'numLigne': '27'}, {'numLigne': '28'}, {'numLigne': '3'}, {'numLigne': '36'}, {'numLigne': '38'}, {'numLigne': '3B'}, {'numLigne': '42'}, {'numLigne': 'C4'}, {'numLigne': 'C9'}, {'numLigne': 'E8'}]"
PISE,Pin Sec,47.24375599,-1.51810558,"[{'numLigne': '1'}, {'numLigne': '11'}]"
PJOU,Point du Jour,47.26495622,-1.4435598,"[{'numLigne': '105'}, {'numLigne': '127'}, {'numLigne': '137'}, {'numLigne': '77'}, {'numLigne': 'C7'}]"
PLAC,Placis,47.19964834,-1.5200823,"[{'numLigne': '102'}, {'numLigne': '27'}, {'numLigne': '28'}]"
PLAE,Planche Etienne,47.16590439,-1.62528649,[{'numLigne': '88'}]
PLBL,Port la Blanche,47.27163335,-1.51667583,"[{'numLigne': '115'}, {'numLigne': '75'}]"
PLCL,Polyclinique,47.2279814,-1.61163773,"[{'numLigne': '59'}, {'numLigne': 'C6'}]"
PLES,Plessis,47.30114993,-1.55230174,"[{'numLigne': '116'}, {'numLigne': '126'}, {'numLigne': '86'}]"
PLGU,Pouliguen,47.23940682,-1.5430508,[{'numLigne': '23'}]
PLNA,Port launay,47.20968794,-1.74630488,"[{'numLigne': '131'}, {'numLigne': '71'}]"
PLOR,Ploreau,47.30314874,-1.55178525,"[{'numLigne': '116'}, {'numLigne': '126'}, {'numLigne': '86'}]"
PLPC,Place des Pêcheurs,47.13646696,-1.66904593,[{'numLigne': '98'}]
PLSS,Plessis,47.26035939,-1.66007149,"[{'numLigne': '139'}, {'numLigne': '149'}, {'numLigne': '159'}, {'numLigne': '169'}, {'numLigne': '69'}]"
PLTI,Platière,47.19448617,-1.56106845,[{'numLigne': '36'}]
PMAR,Pont Marchand,47.26063398,-1.63124914,"[{'numLigne': '119'}, {'numLigne': '129'}, {'numLigne': '139'}, {'numLigne': '189'}, {'numLigne': '89'}]"
PMEU,Port aux Meules,47.16542495,-1.49305446,[{'numLigne': '97'}]
PMTR,Pont de la Métairie,47.26244371,-1.44602801,"[{'numLigne': '117'}, {'numLigne': '127'}, {'numLigne': '135'}, {'numLigne': '137'}, {'numLigne': '157'}, {'numLigne': '77'}, {'numLigne': '87'}, {'numLigne': 'C7'}]"
PMVE,Prairie de Mauves,47.2200318,-1.51652833,[{'numLigne': 'C3'}]
PNLU,Pinier,47.25271209,-1.48171431,"[{'numLigne': '107'}, {'numLigne': '147'}]"
PNPI,Pont Pilet,47.33947182,-1.57231822,[{'numLigne': 'LCN'}]
PNRZ,Pinier,47.18267121,-1.54554442,[{'numLigne': 'C4'}]
PNTI,Plantiveau,47.24659073,-1.51143236,[{'numLigne': '12'}]
POIT,Poitou,47.22406831,-1.56520707,"[{'numLigne': '3'}, {'numLigne': '3B'}]"
POLE,Poulenc,47.25532256,-1.58111378,"[{'numLigne': '109'}, {'numLigne': '59'}]"
POMM,Pommeraie,47.14573609,-1.69508811,"[{'numLigne': '88'}, {'numLigne': '98'}]"
PONT,Ponterau,47.30641291,-1.37883711,[{'numLigne': '67'}]
POON,Potiron,47.27039478,-1.51870365,"[{'numLigne': '115'}, {'numLigne': '75'}]"
POST,Poste,47.29523887,-1.55398958,"[{'numLigne': '116'}, {'numLigne': '126'}, {'numLigne': '86'}, {'numLigne': '96'}, {'numLigne': 'LCE'}]"
POTT,Pottier,47.17763302,-1.62734333,"[{'numLigne': '36'}, {'numLigne': '78'}]"
POYA,Poyaux,47.16678439,-1.53052577,[{'numLigne': '33'}]
PPDO,Pompidou,47.2093962,-1.52752557,"[{'numLigne': '26'}, {'numLigne': '5'}, {'numLigne': 'LS'}]"
PPFA,Petit Port,47.24360737,-1.55737478,"[{'numLigne': '26'}, {'numLigne': 'C20'}]"
PPLI,Peupliers,47.19956367,-1.49562949,"[{'numLigne': '102'}, {'numLigne': '27'}]"
PPOU,Pré Poulain,47.27203712,-1.4445899,"[{'numLigne': '127'}, {'numLigne': '135'}, {'numLigne': '137'}, {'numLigne': '77'}, {'numLigne': 'C7'}]"
PPSI,Petit Plessis,47.30185314,-1.3861984,[{'numLigne': '67'}]
PPTR,Papotière,47.24014265,-1.49681824,"[{'numLigne': '147'}, {'numLigne': '157'}, {'numLigne': '87'}]"
PPUN,Petit Port-Facultés,47.2431325,-1.54742102,[{'numLigne': 'N3'}]
PRCE,Procé,47.2225163,-1.58175188,"[{'numLigne': '11'}, {'numLigne': '23'}, {'numLigne': 'C1'}, {'numLigne': 'C3'}, {'numLigne': 'C6'}]"
PRDI,Praudière,47.2573936,-1.58377913,"[{'numLigne': '109'}, {'numLigne': '59'}]"
PREU,Preux,47.22145853,-1.61274278,[{'numLigne': '59'}]
PRFO,Profondine,47.19610763,-1.48851103,"[{'numLigne': '102'}, {'numLigne': '112'}, {'numLigne': '122'}, {'numLigne': '152'}, {'numLigne': 'C9'}]"
PRGE,Portail Rouge,47.24439358,-1.50439698,"[{'numLigne': '127'}, {'numLigne': '137'}, {'numLigne': '147'}, {'numLigne': '157'}, {'numLigne': '87'}, {'numLigne': 'C7'}]"
PRHE,Petit Rocher,47.24055373,-1.47899478,[{'numLigne': '80'}]
PRIM,Primevères,47.2248762,-1.67288995,[{'numLigne': '71'}]
PRMI,Pyramide,47.20803804,-1.49266797,"[{'numLigne': '152'}, {'numLigne': '162'}, {'numLigne': '30'}, {'numLigne': 'C9'}]"
PRNE,Perrines,47.22753768,-1.51561466,"[{'numLigne': '12'}, {'numLigne': '137'}, {'numLigne': '147'}, {'numLigne': '157'}, {'numLigne': '87'}]"
PROU,Pont-Rousseau-Martyrs,47.19185437,-1.54832452,"[{'numLigne': '2'}, {'numLigne': '3'}, {'numLigne': '38'}, {'numLigne': '3B'}, {'numLigne': 'C4'}]"
PRRI,Perrières,47.30944669,-1.55197896,[{'numLigne': '86'}]
PRSS,Pressoir,47.12355958,-1.63865202,[{'numLigne': '98'}]
PRTE,Portereau,47.16829334,-1.50157978,"[{'numLigne': '47'}, {'numLigne': '97'}]"
PRUT,Proutière,47.19783496,-1.78068777,[{'numLigne': '128'}]
PRZE,Porte de Rezé,47.15724765,-1.54092876,"[{'numLigne': '104'}, {'numLigne': 'C4'}]"
PSAU,Porte de Sautron,47.25079554,-1.618746,"[{'numLigne': '149'}, {'numLigne': '159'}, {'numLigne': '169'}, {'numLigne': '69'}]"
PSCE,Plaisance,47.24012139,-1.59110919,"[{'numLigne': '3'}, {'numLigne': '3B'}]"
PSEV,Parc de la Sèvre,47.1643524,-1.47924396,[{'numLigne': '97'}]
PSIN,Pasteur,47.20098683,-1.67863326,"[{'numLigne': '50'}, {'numLigne': '81'}]"
PSME,Place St Méen,47.31913107,-1.34727709,[{'numLigne': '67'}]
PSOR,Prières,47.1503539,-1.52630305,"[{'numLigne': '104'}, {'numLigne': 'C4'}]"
PSPO,Parc des Sports,47.26054278,-1.44906847,"[{'numLigne': '117'}, {'numLigne': '127'}, {'numLigne': '135'}, {'numLigne': '137'}, {'numLigne': '157'}, {'numLigne': '77'}, {'numLigne': '87'}, {'numLigne': 'C7'}]"
PSSN,Poisson,47.19711969,-1.64993055,[{'numLigne': 'NBI'}]
PSUD,Pôle Sud,47.18880328,-1.46975714,[{'numLigne': '27'}]
PTBO,Petit Bois,47.18550229,-1.67839662,"[{'numLigne': '138'}, {'numLigne': '158'}, {'numLigne': '78'}]"
PTCH,Patache,47.27095614,-1.61917944,"[{'numLigne': '179'}, {'numLigne': '79'}, {'numLigne': '89'}]"
PTEC,Polytech',47.28073259,-1.513891,[{'numLigne': 'E5'}]
PTGO,Poitou,47.20980829,-1.46913668,[{'numLigne': '162'}]
PTIS,Plessis Tison,47.23657256,-1.53358852,"[{'numLigne': 'C1'}, {'numLigne': 'LN'}]"
PTLA,CES Petite Lande,47.17794233,-1.54956064,[{'numLigne': '104'}]
PTNE,Platanes,47.24532779,-1.52496407,"[{'numLigne': '11'}, {'numLigne': 'C1'}, {'numLigne': 'LN'}]"
PTON,Portillon,47.14928857,-1.46906172,[{'numLigne': '47'}]
PTPS,Printemps,47.18850756,-1.50038685,"[{'numLigne': '172'}, {'numLigne': '42'}]"
PTQQ,Portricq,47.26508661,-1.52123154,"[{'numLigne': 'C6'}, {'numLigne': 'LC'}]"
PTRE,Portereau,47.19211569,-1.47580611,"[{'numLigne': '102'}, {'numLigne': '112'}, {'numLigne': '122'}, {'numLigne': '152'}, {'numLigne': 'C9'}]"
PTRI,Patouillerie,47.24552065,-1.58066012,"[{'numLigne': '59'}, {'numLigne': '96'}, {'numLigne': 'C20'}]"
PTSC,Petits Champs Blancs,47.28112281,-1.42008825,[{'numLigne': '135'}]
PTUR,Pâtures,47.30452472,-1.55638729,"[{'numLigne': '116'}, {'numLigne': '126'}, {'numLigne': '86'}]"
PTVI,Pâtis Viaud,47.1385932,-1.45747884,[{'numLigne': '47'}]
PTYY,Planty,47.17526907,-1.49494731,"[{'numLigne': '102'}, {'numLigne': '192'}, {'numLigne': '28'}]"
PUCH,Pluchets,47.21867087,-1.65444503,[{'numLigne': '71'}]
PVIL,Petit Village,47.21700643,-1.65048707,[{'numLigne': '71'}]
PVLO,Pavillon,47.14358417,-1.67934761,[{'numLigne': '88'}]
PVTO,Porte de Vertou,47.18112627,-1.50567017,"[{'numLigne': '102'}, {'numLigne': '142'}, {'numLigne': '192'}, {'numLigne': '28'}, {'numLigne': '4'}, {'numLigne': 'E4'}]"
PXCE,Port aux Cerises,47.31187743,-1.54129709,[{'numLigne': 'LCN'}]
QANT,Quai des Antilles,47.20373747,-1.56980401,"[{'numLigne': '5'}, {'numLigne': '5B'}, {'numLigne': 'LC'}, {'numLigne': 'LN'}, {'numLigne': 'LO'}, {'numLigne': 'LS'}]"
QBNA,Quai Brunais,47.19643837,-1.66957006,"[{'numLigne': '81'}, {'numLigne': 'NBI'}]"
QSCO,Quai Surcouf,47.19487136,-1.5778648,[{'numLigne': '30'}]
QTNE,Quintaine,47.21669222,-1.46248846,"[{'numLigne': '162'}, {'numLigne': '60'}, {'numLigne': 'C9'}]"
RABI,Rabine,47.2611004,-1.64385295,"[{'numLigne': '119'}, {'numLigne': '129'}, {'numLigne': '189'}, {'numLigne': '89'}]"
RAGO,Ragon,47.16539277,-1.54244296,"[{'numLigne': '104'}, {'numLigne': '33'}, {'numLigne': 'C4'}]"
RAVA,Ravardière,47.1837956,-1.66532092,[{'numLigne': '78'}]
RAZA,Ranzay,47.25333138,-1.53070103,"[{'numLigne': '1'}, {'numLigne': '1B'}, {'numLigne': '23'}, {'numLigne': '80'}, {'numLigne': 'C6'}, {'numLigne': 'LN'}]"
RBAL,Roche Ballue,47.17953387,-1.65575479,[{'numLigne': '78'}]
RBHI,René Bouhier,47.20990103,-1.5713114,"[{'numLigne': '11'}, {'numLigne': '23'}, {'numLigne': 'C1'}]"
RBLD,Rabillard,47.19564256,-1.64836691,[{'numLigne': 'NBI'}]
RBNI,Robinière,47.16373212,-1.53558769,[{'numLigne': '33'}]
RBRN,René Bernier,47.19385698,-1.49931691,"[{'numLigne': '102'}, {'numLigne': '172'}, {'numLigne': '28'}]"
RCAS,René Cassin,47.26484515,-1.57387306,"[{'numLigne': '126'}, {'numLigne': '2'}, {'numLigne': '2B'}, {'numLigne': '50'}, {'numLigne': '96'}, {'numLigne': 'C2'}, {'numLigne': 'LCO'}]"
RCER,Rocher,47.21315293,-1.63949256,[{'numLigne': '81'}]
RCPE,Route de la Chapelle,47.25485941,-1.57618523,[{'numLigne': 'C2'}]
RCUU,Rochu,47.21509657,-1.66660477,[{'numLigne': '91'}]
RDFY,Raoul Dufy,47.22262841,-1.5996082,[{'numLigne': 'C3'}]
RDGO,Radigois,47.19305249,-1.51802149,[{'numLigne': '30'}]
RDIE,Rouaudière,47.29420653,-1.58449495,[{'numLigne': 'LCO'}]
RDMV,Rue de Mauves,47.27161724,-1.43265169,"[{'numLigne': '127'}, {'numLigne': '135'}, {'numLigne': '137'}, {'numLigne': '67'}, {'numLigne': 'C7'}]"
RDNT,Rue de Nantes,47.1513463,-1.53429626,"[{'numLigne': '104'}, {'numLigne': 'C4'}]"
REDR,Redras,47.16475404,-1.50238259,[{'numLigne': '47'}]
REFR,Réfractaires,47.30304372,-1.54687868,"[{'numLigne': '96'}, {'numLigne': 'LCN'}]"
RETA,Retas,47.15485606,-1.5370586,"[{'numLigne': '104'}, {'numLigne': 'C4'}]"
REYN,Reynière,47.25574916,-1.5791607,"[{'numLigne': '109'}, {'numLigne': '59'}]"
RGNI,Reigniers,47.13722374,-1.466225,[{'numLigne': '47'}]
RIND,Rue d'Indre,47.20419564,-1.66407105,"[{'numLigne': '50'}, {'numLigne': '81'}, {'numLigne': '91'}, {'numLigne': 'NBI'}]"
RLEA,Rouleaux,47.20009287,-1.46606724,"[{'numLigne': '162'}, {'numLigne': '60'}]"
RLON,Rennes - Longchamp,47.23874527,-1.57064205,"[{'numLigne': '12'}, {'numLigne': 'C2'}, {'numLigne': 'LO'}]"
RMAU,Roche Maurice,47.19632339,-1.61815596,"[{'numLigne': '131'}, {'numLigne': '81'}]"
RMNE,Romanet,47.21149099,-1.6092312,"[{'numLigne': '1'}, {'numLigne': '1B'}, {'numLigne': 'C20'}, {'numLigne': 'LO'}]"
RNAN,Renan,47.21629683,-1.61355149,"[{'numLigne': '23'}, {'numLigne': '59'}]"
RNDR,Renardières,47.14951251,-1.60162904,[{'numLigne': '98'}]
RNIE,Rinière,47.12869086,-1.6361291,[{'numLigne': '98'}]
RNLT,Renault,47.26341561,-1.49570894,[{'numLigne': '77'}]
RNRE,Renaudières,47.29947868,-1.50809314,"[{'numLigne': '85'}, {'numLigne': '95'}]"
RNTI,Reinetière,47.25688956,-1.49153714,"[{'numLigne': '107'}, {'numLigne': '117'}, {'numLigne': '127'}, {'numLigne': '147'}, {'numLigne': '157'}, {'numLigne': '80'}, {'numLigne': '87'}]"
ROCA,Rocade,47.16318351,-1.47374654,[{'numLigne': '97'}]
ROET,Rouet,47.14859959,-1.52221594,"[{'numLigne': '104'}, {'numLigne': 'C4'}]"
RPAR,Rond-Point de Paris,47.23404481,-1.53644693,"[{'numLigne': '10'}, {'numLigne': 'C1'}, {'numLigne': 'LN'}]"
RPBL,République,47.20470864,-1.554412,"[{'numLigne': '26'}, {'numLigne': '5'}, {'numLigne': '5B'}, {'numLigne': 'LC'}, {'numLigne': 'LN'}, {'numLigne': 'LO'}, {'numLigne': 'LS'}]"
RPCH,Repos de Chasse,47.21668073,-1.59969937,"[{'numLigne': '11'}, {'numLigne': '23'}]"
RPSI,Ripossière,47.19159708,-1.53456459,"[{'numLigne': '172'}, {'numLigne': '42'}]"
RQIO,Trentemoult Roquios,47.19547324,-1.58241481,[{'numLigne': 'N1'}]
RREN,Rond-Point de Rennes,47.23303495,-1.56639015,"[{'numLigne': '10'}, {'numLigne': '12'}, {'numLigne': '23'}, {'numLigne': '26'}, {'numLigne': '2B'}, {'numLigne': 'C2'}, {'numLigne': 'LO'}]"
RROL,Romain Rolland,47.20661689,-1.60953263,"[{'numLigne': '1'}, {'numLigne': '1B'}]"
RSCO,Robert Scott,47.18690928,-1.45892159,[{'numLigne': '27'}]
RSLI,Rousselière,47.17565873,-1.5183543,[{'numLigne': '97'}]
RSNB,Rosenberg,47.23568862,-1.65981468,[{'numLigne': '93'}]
RSRA,Roseraie,47.26061641,-1.52831754,"[{'numLigne': '115'}, {'numLigne': '75'}, {'numLigne': 'C6'}, {'numLigne': 'LC'}]"
RTSC,Recteur Schmitt,47.25312047,-1.553041,"[{'numLigne': '116'}, {'numLigne': '2'}, {'numLigne': '26'}, {'numLigne': '2B'}, {'numLigne': '66'}, {'numLigne': '75'}, {'numLigne': '80'}, {'numLigne': '86'}, {'numLigne': 'E5'}, {'numLigne': 'LC'}, {'numLigne': 'LN'}]"
RUET,Ruette,47.23355399,-1.51075885,"[{'numLigne': '137'}, {'numLigne': '147'}, {'numLigne': '157'}, {'numLigne': '87'}]"
RVAN,Rond-Point de Vannes,47.22957259,-1.5728809,"[{'numLigne': '10'}, {'numLigne': '3'}, {'numLigne': '3B'}]"
RVDI,Rivaudière,47.22710048,-1.65031394,[{'numLigne': '93'}]
RVER,Roches Vertes,47.1851951,-1.524048,"[{'numLigne': '172'}, {'numLigne': '30'}, {'numLigne': '42'}, {'numLigne': 'LS'}]"
RZEE,Razée,47.21495313,-1.46606598,[{'numLigne': '60'}]
SADU,Santos Dumont,47.25950282,-1.56673508,"[{'numLigne': '126'}, {'numLigne': '2'}, {'numLigne': '2B'}, {'numLigne': '96'}]"
SAGL,St-Aignan de Grand Lieu,47.12305797,-1.63491975,[{'numLigne': '98'}]
SAIG,St-Aignan,47.20813199,-1.57831944,[{'numLigne': 'C1'}]
SALE,Salentine,47.24856478,-1.61024769,"[{'numLigne': '119'}, {'numLigne': '149'}, {'numLigne': '159'}, {'numLigne': '169'}, {'numLigne': '3B'}, {'numLigne': '69'}]"
SAOR,Sables d'Or,47.2650924,-1.45587347,[{'numLigne': '77'}]
SAPI,Saupin,47.18401164,-1.4757574,"[{'numLigne': '112'}, {'numLigne': '42'}]"
SATR,Sautron,47.26538705,-1.68386822,"[{'numLigne': '139'}, {'numLigne': '149'}, {'numLigne': '159'}, {'numLigne': '169'}, {'numLigne': '69'}]"
SAVA,Savarières,47.20867788,-1.48967395,"[{'numLigne': '122'}, {'numLigne': '152'}, {'numLigne': '162'}, {'numLigne': '30'}, {'numLigne': 'C9'}]"
SBAI,St-Blaise,47.16721273,-1.46901489,"[{'numLigne': '102'}, {'numLigne': '112'}, {'numLigne': '122'}, {'numLigne': '192'}, {'numLigne': '47'}]"
SBLL,Sébilleau,47.20484325,-1.53169021,[{'numLigne': '26'}]
SBSA,St-Jean-Baptiste de la Salle,47.23343329,-1.55993982,"[{'numLigne': '10'}, {'numLigne': '23'}, {'numLigne': '2B'}]"
SCHW,Schweitzer,47.29469355,-1.49490801,"[{'numLigne': '75'}, {'numLigne': '85'}, {'numLigne': '95'}, {'numLigne': 'E5'}]"
SCLE,St-Clément,47.22188441,-1.54720031,"[{'numLigne': 'C1'}, {'numLigne': 'C6'}, {'numLigne': 'LN'}]"
SDAV,Square Daviais,47.21153771,-1.55755218,"[{'numLigne': '11'}, {'numLigne': '1B'}, {'numLigne': '23'}, {'numLigne': 'C1'}, {'numLigne': 'LO'}]"
SDON,St-Donatien,47.22894363,-1.54083745,"[{'numLigne': 'C1'}, {'numLigne': 'LN'}]"
SECH,Schoelcher,47.22040335,-1.62773627,"[{'numLigne': '1'}, {'numLigne': '1B'}]"
SEIL,Seil,47.19424602,-1.57081582,"[{'numLigne': '30'}, {'numLigne': '36'}, {'numLigne': '97'}, {'numLigne': 'LS'}]"
SERC,Sercel,47.26686045,-1.48960508,"[{'numLigne': '77'}, {'numLigne': '85'}]"
SEVR,Sèvres,47.18616678,-1.527302,"[{'numLigne': '172'}, {'numLigne': '42'}]"
SFEL,St-Félix,47.23120872,-1.55647209,"[{'numLigne': '2'}, {'numLigne': '2B'}, {'numLigne': 'LC'}, {'numLigne': 'LN'}]"
SFRA,San-Francisco,47.21769575,-1.51636009,[{'numLigne': 'C3'}]
SGRA,Sageran,47.21963113,-1.57122899,"[{'numLigne': '26'}, {'numLigne': '54'}]"
SHMD,St-Hermeland,47.14426175,-1.69603334,[{'numLigne': '108'}]
SILL,Sillon de Bretagne,47.24555982,-1.60857095,"[{'numLigne': '129'}, {'numLigne': '159'}, {'numLigne': '189'}, {'numLigne': '3'}, {'numLigne': '3B'}, {'numLigne': '50'}, {'numLigne': '54'}]"
SINI,Sinière,47.22578442,-1.67785029,"[{'numLigne': '101'}, {'numLigne': '71'}]"
SJAC,St-Jacques 2,47.19401533,-1.53764642,"[{'numLigne': '172'}, {'numLigne': '42'}]"
SJBO,St-Jean-de-Boiseau,47.19585207,-1.72489753,"[{'numLigne': '128'}, {'numLigne': '138'}, {'numLigne': '158'}, {'numLigne': '78'}, {'numLigne': 'E8'}]"
SJEA,St-Jean,47.1917801,-1.52374341,[{'numLigne': '30'}]
SJPO,St-Joseph de Porterie,47.26783775,-1.51706376,"[{'numLigne': 'C6'}, {'numLigne': 'LC'}]"
SLAU,St-Laurent,47.22332035,-1.59780817,[{'numLigne': 'C6'}]
SLCE,Ste-Luce,47.25035223,-1.48498474,"[{'numLigne': '107'}, {'numLigne': '117'}, {'numLigne': '127'}, {'numLigne': '137'}, {'numLigne': '147'}, {'numLigne': '157'}, {'numLigne': 'C7'}]"
SLDA,Solidarité,47.21718879,-1.58744262,"[{'numLigne': '10'}, {'numLigne': '11'}, {'numLigne': '23'}, {'numLigne': 'C1'}]"
SLEN,Suzanne Lenglen,47.22914252,-1.58818738,[{'numLigne': '54'}]
SLGE,Salorges,47.20473102,-1.57503087,"[{'numLigne': '81'}, {'numLigne': 'C20'}, {'numLigne': 'LO'}]"
SLVI,St-Léger-les-Vignes,47.13640898,-1.72976387,"[{'numLigne': '108'}, {'numLigne': '118'}, {'numLigne': '98'}]"
SMAR,St-Martin,47.21336432,-1.69304592,[{'numLigne': '91'}]
SMHI,St-Mihiel,47.22311737,-1.5533713,[{'numLigne': '2'}]
SMIC,St-Michel,47.22414752,-1.64454074,[{'numLigne': '93'}]
SNIC,St-Nicolas,47.21549162,-1.56048373,"[{'numLigne': '11'}, {'numLigne': '23'}, {'numLigne': '26'}, {'numLigne': '54'}, {'numLigne': 'C1'}, {'numLigne': 'C3'}, {'numLigne': 'C6'}]"
SNUC,Stade SNUC,47.2280461,-1.58070255,[{'numLigne': '10'}]
SOCH,Souchais,47.30765337,-1.48974686,"[{'numLigne': '85'}, {'numLigne': '95'}]"
SOEC,Souchais École,47.3036716,-1.49846486,"[{'numLigne': '85'}, {'numLigne': '95'}]"
SORI,Sorin,47.19525129,-1.56773109,"[{'numLigne': '36'}, {'numLigne': 'LS'}]"
SOUI,Souillarderie,47.23841806,-1.51613393,"[{'numLigne': '1'}, {'numLigne': '187'}, {'numLigne': '1B'}, {'numLigne': 'C7'}]"
SOWE,Soweto,47.23327207,-1.65156746,[{'numLigne': '93'}]
SPHI,Saphirs,47.20494966,-1.65791541,"[{'numLigne': '50'}, {'numLigne': '81'}]"
SPIN,Saupin,47.21428859,-1.53739607,[{'numLigne': '54'}]
SPLO,Ste-Philomène,47.21189407,-1.72466122,[{'numLigne': '141'}]
SPRU,Sully Prudhomme,47.2361546,-1.59650425,"[{'numLigne': '54'}, {'numLigne': '59'}]"
SPSA,St-Paul - Salengro,47.18534886,-1.54626705,[{'numLigne': 'C4'}]
SRDI,Sarradin,47.2204755,-1.57023306,"[{'numLigne': '26'}, {'numLigne': '54'}]"
SRNI,Les Sorinières,47.15918543,-1.51809294,"[{'numLigne': '104'}, {'numLigne': 'C4'}]"
SRTR,Sartre,47.21429811,-1.64023862,[{'numLigne': '71'}]
SSEB,St-Sébastien-sur-Loire,47.20751612,-1.50293935,"[{'numLigne': '152'}, {'numLigne': '162'}, {'numLigne': '30'}, {'numLigne': 'C9'}]"
SSTA,St-Stanislas,47.22219743,-1.55660951,"[{'numLigne': '12'}, {'numLigne': '23'}, {'numLigne': '2B'}, {'numLigne': 'C2'}, {'numLigne': 'LO'}]"
STBS,Stade,47.19131565,-1.70790343,"[{'numLigne': '128'}, {'numLigne': '138'}, {'numLigne': '158'}, {'numLigne': '78'}]"
STHR,Alexandre Vincent-Ste-Thérèse,47.23266376,-1.57733827,"[{'numLigne': '3'}, {'numLigne': '3B'}]"
STPI,St-Pierre,47.21803175,-1.55194397,"[{'numLigne': '11'}, {'numLigne': '12'}, {'numLigne': 'C1'}, {'numLigne': 'C6'}, {'numLigne': 'LC'}, {'numLigne': 'LN'}]"
STXU,St-Exupéry,47.15280587,-1.59487324,[{'numLigne': '38'}]
SUCO,Surcouf,47.26884475,-1.44581947,"[{'numLigne': '105'}, {'numLigne': '127'}, {'numLigne': '137'}]"
SVAU,Savaudière,47.28925918,-1.51477024,"[{'numLigne': '115'}, {'numLigne': '75'}]"
SVDI,Solvardière,47.21811576,-1.64184443,"[{'numLigne': '50'}, {'numLigne': '91'}]"
SVIN,Stévin,47.26008032,-1.63425105,"[{'numLigne': '119'}, {'numLigne': '129'}, {'numLigne': '139'}, {'numLigne': '189'}, {'numLigne': '89'}]"
SVNN,Savonnières,47.19748509,-1.66277648,"[{'numLigne': '81'}, {'numLigne': 'NBI'}]"
SYRM,Syrma,47.27704383,-1.47035183,[{'numLigne': '77'}]
TADI,Taillandier,47.2143426,-1.71651857,[{'numLigne': '101'}]
TAID,Toutes Aides,47.22611817,-1.52304846,"[{'numLigne': '10'}, {'numLigne': '12'}, {'numLigne': '137'}, {'numLigne': '147'}, {'numLigne': '157'}, {'numLigne': '1B'}, {'numLigne': '87'}]"
TBAU,Thébaudières,47.31056591,-1.35886767,[{'numLigne': '67'}]
TBCH,Trébuchet,47.21977697,-1.54559314,"[{'numLigne': '11'}, {'numLigne': '12'}, {'numLigne': 'C1'}, {'numLigne': 'C6'}]"
TBER,Tristan Bernard,47.20580571,-1.46488733,[{'numLigne': '162'}]
TBLY,Tabarly,47.19552476,-1.54898736,[{'numLigne': '36'}]
TCHE,Trois Chênes,47.25818959,-1.47403605,"[{'numLigne': '105'}, {'numLigne': '107'}, {'numLigne': '135'}, {'numLigne': '147'}, {'numLigne': '87'}]"
TDGA,Tredégar,47.25473351,-1.6036918,"[{'numLigne': '116'}, {'numLigne': '179'}, {'numLigne': '50'}, {'numLigne': '79'}]"
TEBS,Tertre,47.19668985,-1.74452027,"[{'numLigne': '128'}, {'numLigne': '138'}, {'numLigne': '158'}, {'numLigne': '78'}]"
TEIF,Tour Eiffel,47.19958731,-1.75425712,"[{'numLigne': '128'}, {'numLigne': '138'}, {'numLigne': '148'}, {'numLigne': '78'}, {'numLigne': 'E8'}]"
TENA,Tertre,47.21442014,-1.60786096,"[{'numLigne': '1'}, {'numLigne': '11'}, {'numLigne': '1B'}, {'numLigne': 'C20'}, {'numLigne': 'LO'}]"
TERR,Terray,47.2518203,-1.52741713,"[{'numLigne': '23'}, {'numLigne': '80'}, {'numLigne': 'LN'}]"
THAT,Théatre,47.21635019,-1.72856903,[{'numLigne': '91'}]
THCE,Centre de Thouaré-sur-Loire,47.26655719,-1.44142385,"[{'numLigne': '105'}, {'numLigne': '127'}, {'numLigne': '135'}, {'numLigne': '137'}, {'numLigne': '67'}, {'numLigne': '77'}, {'numLigne': 'C7'}]"
THEB,Thébaudières,47.24437424,-1.60636726,"[{'numLigne': '54'}, {'numLigne': '89'}]"
TILL,Tillay,47.2287954,-1.60627659,"[{'numLigne': '59'}, {'numLigne': 'C6'}]"
TJOI,Toutes Joies,47.22119467,-1.57292964,"[{'numLigne': '26'}, {'numLigne': '3B'}, {'numLigne': '54'}]"
TLDI,Télindière,47.19614258,-1.73707782,"[{'numLigne': '128'}, {'numLigne': '138'}, {'numLigne': '158'}, {'numLigne': '78'}]"
TLSA,Talensac,47.22158633,-1.55603622,"[{'numLigne': '12'}, {'numLigne': '23'}, {'numLigne': '2B'}, {'numLigne': 'C2'}, {'numLigne': 'LO'}]"
TMET,Trois Métairies,47.17639742,-1.50163238,"[{'numLigne': '102'}, {'numLigne': '192'}, {'numLigne': '28'}]"
TMLI,Tourmaline,47.22141243,-1.63243835,"[{'numLigne': '1'}, {'numLigne': '1B'}]"
TMOU,Trois Moulins,47.17812008,-1.54428975,"[{'numLigne': '104'}, {'numLigne': 'C4'}]"
TMSS,Trémissinière,47.23810458,-1.54427876,[{'numLigne': '23'}]
TNVA,Terre Neuvas,47.1858915,-1.59135787,[{'numLigne': '36'}]
TOSC,Toscane,47.28327006,-1.54835331,[{'numLigne': 'LCE'}]
TOTR,Tortière,47.23522257,-1.54962352,"[{'numLigne': '10'}, {'numLigne': '23'}]"
TOUG,Tougas,47.19414178,-1.63966591,[{'numLigne': '81'}]
TPCH,Terpsichore,47.28237319,-1.50249485,"[{'numLigne': '115'}, {'numLigne': '95'}]"
TPOD,Tripode,47.20850406,-1.540678,[{'numLigne': '4'}]
TRCA,Tréca,47.25016823,-1.50137284,[{'numLigne': '80'}]
TRIA,Trianon,47.27322232,-1.43038312,"[{'numLigne': '67'}, {'numLigne': 'C7'}]"
TRNE,Tribunes,47.24908586,-1.56848774,"[{'numLigne': '26'}, {'numLigne': 'C20'}]"
TROC,Trocardière,47.1831856,-1.57028594,"[{'numLigne': '2'}, {'numLigne': '3'}]"
TRQU,Terres Quartières,47.13472563,-1.65954391,[{'numLigne': '98'}]
TRTS,Tarentaise,47.27742305,-1.43411983,[{'numLigne': '135'}]
TTMO,Trentemoult,47.1915174,-1.58273297,"[{'numLigne': '30'}, {'numLigne': '36'}, {'numLigne': '97'}]"
TZEL,Touzelles,47.20835048,-1.46691839,"[{'numLigne': '162'}, {'numLigne': '60'}]"
UBRU,Usine Brûlée,47.19494901,-1.6319294,"[{'numLigne': '131'}, {'numLigne': '81'}]"
UGAZ,Usine à gaz,47.19462474,-1.620409,"[{'numLigne': '131'}, {'numLigne': '81'}]"
UTCH,Utrecht,47.28314109,-1.55218221,[{'numLigne': 'LCE'}]
UTLO,Utrillo,47.18206569,-1.5634668,[{'numLigne': '33'}]
VAIL,Vaillant,47.19962676,-1.67113033,"[{'numLigne': '50'}, {'numLigne': '81'}, {'numLigne': '91'}]"
VALL,Vallée,47.25087942,-1.57668761,"[{'numLigne': '109'}, {'numLigne': '59'}, {'numLigne': '96'}, {'numLigne': 'C2'}, {'numLigne': 'C20'}]"
VARI,Vincent Auriol,47.22179776,-1.59227572,"[{'numLigne': 'C3'}, {'numLigne': 'C6'}]"
VCSO,Vaucanson,47.21288501,-1.58157525,"[{'numLigne': '11'}, {'numLigne': '23'}, {'numLigne': 'C1'}]"
VDCE,Val du Cens,47.2610839,-1.66515341,"[{'numLigne': '139'}, {'numLigne': '149'}, {'numLigne': '159'}, {'numLigne': '169'}, {'numLigne': '69'}]"
VDLO,Vieux Doulon,47.23548982,-1.50402199,"[{'numLigne': '12'}, {'numLigne': '147'}, {'numLigne': '157'}, {'numLigne': '87'}]"
VDNI,Ville au Denis,47.1627817,-1.62703642,[{'numLigne': '88'}]
VDUR,Verdure,47.19591839,-1.65340905,"[{'numLigne': '81'}, {'numLigne': 'NBI'}]"
VEAG,Véga,47.27966997,-1.46445133,[{'numLigne': '77'}]
VEGE,Verger,47.2930916,-1.49704348,"[{'numLigne': '75'}, {'numLigne': '85'}, {'numLigne': '95'}]"
VEIE,Verrière,47.2768476,-1.57051647,"[{'numLigne': '126'}, {'numLigne': '96'}]"
VEND,Vendée,47.20829389,-1.46863248,[{'numLigne': '162'}]
VEPR,Vesprées,47.24608554,-1.50227012,"[{'numLigne': '127'}, {'numLigne': '137'}, {'numLigne': 'C7'}]"
VERL,Verlaine,47.23333811,-1.59457807,"[{'numLigne': '54'}, {'numLigne': '59'}]"
VEXP,Village Expo,47.21462541,-1.61501436,"[{'numLigne': '23'}, {'numLigne': '59'}]"
VFOU,Vieux Four,47.19093184,-1.70087103,"[{'numLigne': '138'}, {'numLigne': '158'}, {'numLigne': '78'}]"
VGAC,Vincent Gâche,47.20635971,-1.54818815,"[{'numLigne': '2'}, {'numLigne': '3'}, {'numLigne': '3B'}, {'numLigne': '5'}, {'numLigne': 'LC'}]"
VIAR,Viarme-Talensac,47.22118375,-1.56261703,"[{'numLigne': '3'}, {'numLigne': '3B'}]"
VIER,Viv'Erdre,47.28563361,-1.55037822,[{'numLigne': 'LCE'}]
VILE,Violettes,47.19813167,-1.50887313,[{'numLigne': '30'}]
VINE,Villeneuve,47.19411407,-1.51320907,[{'numLigne': '30'}]
VISO,Vison,47.24421766,-1.50967453,[{'numLigne': '12'}]
VIVI,Viviers,47.17308163,-1.48488496,"[{'numLigne': '102'}, {'numLigne': '192'}, {'numLigne': '28'}]"
VRIE,Vrière,47.28210909,-1.55607767,"[{'numLigne': '116'}, {'numLigne': '86'}]"
VRPD,Vert Praud,47.16658153,-1.54992478,[{'numLigne': '33'}]
VSCO,Vincent Scotto,47.25204128,-1.56632259,"[{'numLigne': '116'}, {'numLigne': '26'}, {'numLigne': '2B'}, {'numLigne': '86'}]"
DPVT,Vertonne,47.18708768,-1.49434,"[{'numLigne': '102'}, {'numLigne': '28'}]"
VTOU,Vertou,47.16885458,-1.47111255,"[{'numLigne': '102'}, {'numLigne': '112'}, {'numLigne': '122'}, {'numLigne': '192'}, {'numLigne': '28'}, {'numLigne': '42'}, {'numLigne': '47'}, {'numLigne': '60'}, {'numLigne': '97'}, {'numLigne': 'E4'}]"
VVRE,Vièvre,47.1980661,-1.81440774,[{'numLigne': '128'}]
WATT,Wattignies,47.20380749,-1.54641697,"[{'numLigne': '2'}, {'numLigne': '3'}, {'numLigne': '3B'}, {'numLigne': 'LC'}]"
WDIS,Walt Disney,47.19488704,-1.49000938,[{'numLigne': '27'}]
XBON,Croix Bonneau,47.20962828,-1.59521524,"[{'numLigne': '1'}, {'numLigne': '11'}, {'numLigne': '1B'}, {'numLigne': '81'}, {'numLigne': 'LO'}]"
XJAN,Croix Jeannette,47.17162796,-1.6238608,"[{'numLigne': '36'}, {'numLigne': '88'}]"
XREZ,Croix de Rezé,47.18002827,-1.55899868,"[{'numLigne': '30'}, {'numLigne': '38'}, {'numLigne': 'LS'}]"
XSYY,Croisy,47.25383423,-1.62730496,"[{'numLigne': '149'}, {'numLigne': '159'}, {'numLigne': '169'}, {'numLigne': '69'}]"
XTRU,Croix Truin,47.19136106,-1.71173896,"[{'numLigne': '128'}, {'numLigne': '138'}, {'numLigne': '158'}, {'numLigne': '78'}, {'numLigne': 'E8'}]"
ZENI,Zénith,47.23061352,-1.62941868,[{'numLigne': 'C3'}]
ZOLA,Zola,47.21381063,-1.58613736,"[{'numLigne': '10'}, {'numLigne': '11'}, {'numLigne': '23'}, {'numLigne': 'C1'}]"
